{
  "-LeuOEGdCR8MmAmfAPcg": {
    "city": "Kozienice",
    "id": "-LeuOEGdCR8MmAmfAPcg",
    "info": "Czynne: poniedzialek, środa, piątek, w godz. 7:30-11-30",
    "latitude": 51.5917985,
    "longitude": 21.5249803,
    "name": "Oddział Terenowy w Kozienicach",
    "phone": "506263888",
    "site": "http://www.rckik.radom.pl/oddzial-terenowy-kozienice",
    "street": "Aleja Generała Władysława Sikorskiego 10",
    "voivodeship": "mazowieckie",
    "voivodeship_id": "8f14e45fceea167a5a36dedd4bea2543",
    "zip": "26-600"
  },
  "-MaQBa6nFnVKa6SDjfOq": {
    "city": "Płock",
    "id": "-MaQBa6nFnVKa6SDjfOq",
    "info": "Dawcy krwi przyjmowani są: - poniedziałek – piątek 7:00 – 13:00",
    "latitude": 52.560257,
    "longitude": 19.655355,
    "name": "RCKiK w Płocku",
    "phone": "24 364 62 51",
    "site": "https://www.rckik-warszawa.com.pl",
    "street": "Medyczna 19",
    "voivodeship": "mazowieckie",
    "zip": "09-400"
  },
  "006f52e9102a8d3be2fe5614f42ba989": {
    "city": "Ostrów Wlkp",
    "id": "006f52e9102a8d3be2fe5614f42ba989",
    "info": "",
    "latitude": 51.6538704,
    "longitude": 17.8263902,
    "name": "Terenowy Oddział RCKiK w Ostrowie Wlkp.",
    "phone": "",
    "site": "",
    "street": "Limanowskiego 22",
    "voivodeship": "wielkopolskie",
    "voivodeship_id": "9bf31c7ff062936a96d3c8bd1f8f2ff3",
    "zip": "63-400"
  },
  "013d407166ec4fa56eb1e1f8cbe183b9": {
    "city": "Zawiercie",
    "id": "013d407166ec4fa56eb1e1f8cbe183b9",
    "info": "czynne w każdą środę oraz piątek w godz. 8:00 - 11:30",
    "latitude": 50.490947,
    "longitude": 19.4317915,
    "name": "Stacjonarne punkty oddawania krwi w Zawierciu",
    "phone": "",
    "site": "",
    "street": "Piłsudskiego 81 C",
    "voivodeship": "śląskie",
    "voivodeship_id": "c20ad4d76fe97759aa27a0c99bff6710",
    "zip": "42-400"
  },
  "02522a2b2726fb0a03bb19f2d8d9524d": {
    "city": "Pszczyna",
    "id": "02522a2b2726fb0a03bb19f2d8d9524d",
    "info": "rejestracja dawców 7.00 - 12.00",
    "latitude": 49.9857805,
    "longitude": 18.9477092,
    "name": "Oddział Terenowy Pszczyna",
    "phone": "32 212 80 44",
    "site": "",
    "street": "Biskupa Bednorza 10-12",
    "voivodeship": "śląskie",
    "voivodeship_id": "c20ad4d76fe97759aa27a0c99bff6710",
    "zip": "43-200"
  },
  "02e74f10e0327ad868d138f2b4fdd6f0": {
    "city": "Puławy",
    "id": "02e74f10e0327ad868d138f2b4fdd6f0",
    "info": "",
    "latitude": 51.4216979,
    "longitude": 21.9746804,
    "name": "Oddział w Puławach",
    "phone": "",
    "site": "",
    "street": "Bema 1",
    "voivodeship": "lubelskie",
    "voivodeship_id": "eccbc87e4b5ce2fe28308fd9f2a7baf3",
    "zip": "24-100"
  },
  "03afdbd66e7929b125f8597834fa83a4": {
    "city": "Nowy Targ",
    "id": "03afdbd66e7929b125f8597834fa83a4",
    "info": "",
    "latitude": 49.4880026,
    "longitude": 20.0313092,
    "name": "Oddział Terenowy RCKiK w Krakowie",
    "phone": "",
    "site": "",
    "street": "Szpitalna 12",
    "voivodeship": "małopolskie",
    "voivodeship_id": "1679091c5a880faf6fb5e6087eb1b2dc",
    "zip": "34-400"
  },
  "045117b0e0a11a242b9765e79cbf113f": {
    "city": "Barlinek",
    "id": "045117b0e0a11a242b9765e79cbf113f",
    "info": "godziny rejestracji - 7:30 - 10:00",
    "latitude": 52.9971134,
    "longitude": 15.2233749,
    "name": "Oddział terenowy w Barlinku",
    "phone": "95 746 30 33",
    "site": "",
    "street": "Szpitalna 8",
    "voivodeship": "zachodniopomorskie",
    "voivodeship_id": "c74d97b01eae257e44aa9d5bade97baf",
    "zip": "74-320"
  },
  "06409663226af2f3114485aa4e0a23b4": {
    "city": "Chodzież",
    "id": "06409663226af2f3114485aa4e0a23b4",
    "info": "czynne poniedziałek, środa, piątek, rejestracja: 7.00-9.00",
    "latitude": 52.98818,
    "longitude": 16.91564,
    "name": "Oddział terenowy w Chodzieży",
    "phone": "67 282 05 70",
    "site": "",
    "street": "Żeromskiego 29",
    "voivodeship": "wielkopolskie",
    "voivodeship_id": "9bf31c7ff062936a96d3c8bd1f8f2ff3",
    "zip": "64-800"
  },
  "069059b7ef840f0c74a814ec9237b6ec": {
    "city": "Bielsko-Biała",
    "id": "069059b7ef840f0c74a814ec9237b6ec",
    "info": "",
    "latitude": 49.822368,
    "longitude": 19.0367734,
    "name": "Oddział Terenowy Bielsko-Biała",
    "phone": "33 812 21 90, 33 822",
    "site": "",
    "street": "Wyspiańskiego 21",
    "voivodeship": "śląskie",
    "voivodeship_id": "c20ad4d76fe97759aa27a0c99bff6710",
    "zip": "43-300"
  },
  "072b030ba126b2f4b2374f342be9ed44": {
    "city": "Limanowa",
    "id": "072b030ba126b2f4b2374f342be9ed44",
    "info": "",
    "latitude": 49.715954,
    "longitude": 20.413518,
    "name": "Oddział Terenowy RCKiK w Krakowie",
    "phone": "",
    "site": "",
    "street": "Piłsudskiego 61",
    "voivodeship": "małopolskie",
    "voivodeship_id": "1679091c5a880faf6fb5e6087eb1b2dc",
    "zip": "34-600"
  },
  "0777d5c17d4066b82ab86dff8a46af6f": {
    "city": "Konin",
    "id": "0777d5c17d4066b82ab86dff8a46af6f",
    "info": "",
    "latitude": 52.2263837,
    "longitude": 18.2640829,
    "name": "Terenowy Oddział RCKiK w Koninie",
    "phone": "",
    "site": "",
    "street": "Wyszyńskiego 1",
    "voivodeship": "wielkopolskie",
    "voivodeship_id": "9bf31c7ff062936a96d3c8bd1f8f2ff3",
    "zip": "62-510"
  },
  "07e1cd7dca89a1678042477183b7ac3f": {
    "city": "Kościerzyna ",
    "id": "07e1cd7dca89a1678042477183b7ac3f",
    "info": "",
    "latitude": 54.121273,
    "longitude": 17.949956,
    "name": "Oddział Terenowy Kościerzyna",
    "phone": "58 686 02 30",
    "site": "",
    "street": "Piechowskiego 36",
    "voivodeship": "pomorskie",
    "voivodeship_id": "6512bd43d9caa6e02c990b0a82652dca",
    "zip": "83-400"
  },
  "093f65e080a295f8076b1c5722a46aa2": {
    "city": "Kraków",
    "id": "093f65e080a295f8076b1c5722a46aa2",
    "info": "",
    "latitude": 50.0750726,
    "longitude": 19.9339219,
    "name": "WCKiK Kraków",
    "phone": "12 630 82 90",
    "site": "",
    "street": "Wrocławska 1-3",
    "voivodeship": "małopolskie",
    "voivodeship_id": "1679091c5a880faf6fb5e6087eb1b2dc",
    "zip": "30-006"
  },
  "0a09c8844ba8f0936c20bd791130d6b6": {
    "city": "Skarżysko-Kamienna ",
    "id": "0a09c8844ba8f0936c20bd791130d6b6",
    "info": "",
    "latitude": 51.1263851,
    "longitude": 20.8702932,
    "name": "Zespół Opieki ZdrowOddział Terenowynej",
    "phone": "",
    "site": "",
    "street": "Szpitalna 1",
    "voivodeship": "świętokrzyskie",
    "voivodeship_id": "c51ce410c124a10e0db5e4b97fc2af39",
    "zip": "26-110"
  },
  "0aa1883c6411f7873cb83dacb17b0afc": {
    "city": "Świnoujście",
    "id": "0aa1883c6411f7873cb83dacb17b0afc",
    "info": "godziny rejestracji - 8:00 - 12:00",
    "latitude": 53.9044761,
    "longitude": 14.2682323,
    "name": "Oddział terenowy w Świnoujściu",
    "phone": "91 321 24 46",
    "site": "",
    "street": "Mieszka I-go 4",
    "voivodeship": "zachodniopomorskie",
    "voivodeship_id": "c74d97b01eae257e44aa9d5bade97baf",
    "zip": "72-600"
  },
  "0f28b5d49b3020afeecd95b4009adf4c": {
    "city": "Końskie",
    "id": "0f28b5d49b3020afeecd95b4009adf4c",
    "info": "",
    "latitude": 51.190801,
    "longitude": 20.391731,
    "name": "Zespół Opieki ZdrowOddział Terenowynej",
    "phone": "",
    "site": "",
    "street": "Gimnazjalna 41b",
    "voivodeship": "świętokrzyskie",
    "voivodeship_id": "c51ce410c124a10e0db5e4b97fc2af39",
    "zip": "26-200"
  },
  "1385974ed5904a438616ff7bdb3f7439": {
    "city": "Kielce",
    "id": "1385974ed5904a438616ff7bdb3f7439",
    "info": "",
    "latitude": 50.8731908,
    "longitude": 20.6053995,
    "name": "Regionalne Centrum Krwiodawstwa i Krwiolecznictwa w Kielcach",
    "phone": "41 335 94 22",
    "site": "",
    "street": "Jagiellońska 66",
    "voivodeship": "świętokrzyskie",
    "voivodeship_id": "c51ce410c124a10e0db5e4b97fc2af39",
    "zip": "25-734"
  },
  "140f6969d5213fd0ece03148e62e461e": {
    "city": "Czarnków",
    "id": "140f6969d5213fd0ece03148e62e461e",
    "info": "czynne poniedziałek, środa, piątek, rejestracja: 7.00-11.00",
    "latitude": 52.897624,
    "longitude": 16.555386,
    "name": "Oddział terenowy w Czarnków",
    "phone": "67 352 81 35",
    "site": "",
    "street": "Kościuszki 91",
    "voivodeship": "wielkopolskie",
    "voivodeship_id": "9bf31c7ff062936a96d3c8bd1f8f2ff3",
    "zip": "64-700"
  },
  "149e9677a5989fd342ae44213df68868": {
    "city": "Piła",
    "id": "149e9677a5989fd342ae44213df68868",
    "info": "czynne poniedziałek, wtorek, czwartek, piątek, rejestracja: 7.30-10.30, środa - rejestracja 12.00-16.00",
    "latitude": 53.121182,
    "longitude": 16.7164805,
    "name": "Oddział terenowy w Pile",
    "phone": "67 210 64 95",
    "site": "",
    "street": "Rydygiera 1",
    "voivodeship": "wielkopolskie",
    "voivodeship_id": "9bf31c7ff062936a96d3c8bd1f8f2ff3",
    "zip": "64-920"
  },
  "1679091c5a880faf6fb5e6087eb1b2dc": {
    "city": "Lubin",
    "id": "1679091c5a880faf6fb5e6087eb1b2dc",
    "info": "czynne od pon. do czw. 7:30 -10:00 w piątki 7:30-16:30",
    "latitude": 51.4009111,
    "longitude": 16.1977087,
    "name": "Odział Trenowy Lubin",
    "phone": "76 746 88 70",
    "site": "",
    "street": "Bema 5",
    "voivodeship": "dolnośląskie",
    "voivodeship_id": "c4ca4238a0b923820dcc509a6f75849b",
    "zip": "59-300"
  },
  "17e62166fc8586dfa4d1bc0e1742c08b": {
    "city": "Opoczno",
    "id": "17e62166fc8586dfa4d1bc0e1742c08b",
    "info": "czynne poniedziałek 8:00 - 10:00, czwartek 8:30 - 11:00, piątek 8:30 - 10:30",
    "latitude": 51.3818143,
    "longitude": 20.2768167,
    "name": "Punkt pobrań - Nr 15",
    "phone": "44 754 23 68",
    "site": "",
    "street": "Partyzantów",
    "voivodeship": "łódzkie",
    "voivodeship_id": "e4da3b7fbbce2345d7772b0674a318d5",
    "zip": "26-300"
  },
  "182be0c5cdcd5072bb1864cdee4d3d6e": {
    "city": "Sulęcin",
    "id": "182be0c5cdcd5072bb1864cdee4d3d6e",
    "info": "czynne poniedziałek - wtorek, czwartek - piątek od 8.00 do 13.40, rejestracja dawców od 8.00 do 10.00",
    "latitude": 52.437865,
    "longitude": 15.120565,
    "name": "Oddział terenowy w Sulęcinie",
    "phone": "95 755 95 34",
    "site": "",
    "street": "Dudka 15",
    "voivodeship": "lubuskie",
    "voivodeship_id": "a87ff679a2f3e71d9181a67b7542122c",
    "zip": "67-200"
  },
  "19ca14e7ea6328a42e0eb13d585e4c22": {
    "city": "Żary",
    "id": "19ca14e7ea6328a42e0eb13d585e4c22",
    "info": "czynne poniedziałek - piątek od 8.00 do 13.40, rejestracja dawców od 8.00 do 11.30",
    "latitude": 51.6403029,
    "longitude": 15.1524176,
    "name": "Oddział terenowy w Żarach",
    "phone": "68 363 66 05",
    "site": "",
    "street": "Bohaterów Getta 22",
    "voivodeship": "lubuskie",
    "voivodeship_id": "a87ff679a2f3e71d9181a67b7542122c",
    "zip": "68-200"
  },
  "1afa34a7f984eeabdbb0a7d494132ee5": {
    "city": "Gliwice",
    "id": "1afa34a7f984eeabdbb0a7d494132ee5",
    "info": "rejestracja dawców 7.00 - 10.30",
    "latitude": 50.3016374,
    "longitude": 18.6632509,
    "name": "Oddział Terenowy Gliwice",
    "phone": "32 278 98 38",
    "site": "",
    "street": "Wybrzeże Armii Krajowej 15",
    "voivodeship": "śląskie",
    "voivodeship_id": "c20ad4d76fe97759aa27a0c99bff6710",
    "zip": "44-102"
  },
  "1c383cd30b7c298ab50293adfecb7b18": {
    "city": "Żagań",
    "id": "1c383cd30b7c298ab50293adfecb7b18",
    "info": "czynne poniedziałek - piątek od 8.00 do 13.40, rejestracja dawców od 8.00 do 10.30",
    "latitude": 51.6120411,
    "longitude": 15.3305726,
    "name": "Oddział terenowy w Żaganiu",
    "phone": "68 367 10 43",
    "site": "",
    "street": "Szprotawska 45 A",
    "voivodeship": "lubuskie",
    "voivodeship_id": "a87ff679a2f3e71d9181a67b7542122c",
    "zip": "68-100"
  },
  "1c9ac0159c94d8d0cbedc973445af2da": {
    "city": "Pasłęk",
    "id": "1c9ac0159c94d8d0cbedc973445af2da",
    "info": "",
    "latitude": 53.7018895,
    "longitude": 20.9557772,
    "name": "Oddział Terenowy w Pasłęku",
    "phone": "",
    "site": "",
    "street": "Plac Grunwaldzki 8",
    "voivodeship": "warmińsko-mazurskie",
    "voivodeship_id": "aab3238922bcc25a6f606eb525ffdc56",
    "zip": "14-400"
  },
  "1d7f7abc18fcb43975065399b0d1e48e": {
    "city": "Nidzica",
    "id": "1d7f7abc18fcb43975065399b0d1e48e",
    "info": "",
    "latitude": 53.361338,
    "longitude": 20.421693,
    "name": "Oddział Terenowy w Nidzicy",
    "phone": "",
    "site": "",
    "street": "Traugutta 13",
    "voivodeship": "warmińsko-mazurskie",
    "voivodeship_id": "aab3238922bcc25a6f606eb525ffdc56",
    "zip": "13-100"
  },
  "1f0e3dad99908345f7439f8ffabdffc4": {
    "city": "Włocławek",
    "id": "1f0e3dad99908345f7439f8ffabdffc4",
    "info": "",
    "latitude": 52.6587792,
    "longitude": 19.0298856,
    "name": "Szpital Wojewódzki",
    "phone": "",
    "site": "",
    "street": "Wieniecka 43",
    "voivodeship": "kujawsko-pomorskie",
    "voivodeship_id": "c81e728d9d4c2f636f067f89cc14862c",
    "zip": "87-800"
  },
  "1ff1de774005f8da13f42943881c655f": {
    "city": "Lublin",
    "id": "1ff1de774005f8da13f42943881c655f",
    "info": "poniedziałek, środa, piątek:7.30-14.00, wtorek, czwartek: 7.30-18.00, sobota: 7.30-14.00",
    "latitude": 51.2488838,
    "longitude": 22.5559692,
    "name": "RCKiK Lublin",
    "phone": "",
    "site": "http://www.rckik.lublin.pl/",
    "street": "I Armii W.P. 8",
    "voivodeship": "lubelskie",
    "voivodeship_id": "eccbc87e4b5ce2fe28308fd9f2a7baf3",
    "zip": "20-078"
  },
  "1ff8a7b5dc7a7d1f0ed65aaa29c04b1e": {
    "city": "Szamotuły",
    "id": "1ff8a7b5dc7a7d1f0ed65aaa29c04b1e",
    "info": "czynne od poniedziałku do piątku, rejestracja: 7.30-10.00",
    "latitude": 52.6116869,
    "longitude": 16.580649,
    "name": "Oddział terenowy w Szamułach",
    "phone": "61 292 65 09",
    "site": "",
    "street": "Sukiennicza 13",
    "voivodeship": "wielkopolskie",
    "voivodeship_id": "9bf31c7ff062936a96d3c8bd1f8f2ff3",
    "zip": "64-500"
  },
  "202cb962ac59075b964b07152d234b70": {
    "city": "Starogard Gdański",
    "id": "202cb962ac59075b964b07152d234b70",
    "info": "czynne pon.- pt. 7:00-11:30",
    "latitude": 53.967456,
    "longitude": 18.5083464,
    "name": "Oddział Terenowy Starogard Gdański",
    "phone": "58 562 50 05",
    "site": "",
    "street": "Dr J. Balewskiego 1",
    "voivodeship": "pomorskie",
    "voivodeship_id": "6512bd43d9caa6e02c990b0a82652dca",
    "zip": "83-200"
  },
  "26657d5ff9020d2abefe558796b99584": {
    "city": "Dębica",
    "id": "26657d5ff9020d2abefe558796b99584",
    "info": "",
    "latitude": 50.0373519,
    "longitude": 21.3950372,
    "name": "Oddział Terenowy Dębica",
    "phone": "14 670 07 81",
    "site": "",
    "street": "Krakowska 91",
    "voivodeship": "podkarpackie",
    "voivodeship_id": "45c48cce2e2d7fbdea1afc51c7c6ad26",
    "zip": "39-200"
  },
  "2723d092b63885e0d7c260cc007e8b9d": {
    "city": "Hajnówka",
    "id": "2723d092b63885e0d7c260cc007e8b9d",
    "info": "",
    "latitude": 52.746564,
    "longitude": 23.610402,
    "name": "Oddział w Hajnówce",
    "phone": "684 30 05",
    "site": "",
    "street": "Lipowa 190",
    "voivodeship": "podlaskie",
    "voivodeship_id": "d3d9446802a44259755d38e6d163e820",
    "zip": "17-200"
  },
  "2838023a778dfaecdc212708f721b788": {
    "city": "Zduńska Wola",
    "id": "2838023a778dfaecdc212708f721b788",
    "info": "czynne poniedziałek 8:00 - 11:00, środa 8:00 - 11:00, czwartek 8:00 - 11:00, piątek 8:00 - 11:30",
    "latitude": 51.6037074,
    "longitude": 18.9423215,
    "name": "Punkt Pobrań - Nr 23",
    "phone": "",
    "site": "",
    "street": "Królewska 29",
    "voivodeship": "łódzkie",
    "voivodeship_id": "e4da3b7fbbce2345d7772b0674a318d5",
    "zip": "98-220"
  },
  "28dd2c7955ce926456240b2ff0100bde": {
    "city": "Ostrołęka",
    "id": "28dd2c7955ce926456240b2ff0100bde",
    "info": "czynne od 7:00 do 13:30",
    "latitude": 53.063051,
    "longitude": 21.589836,
    "name": "Oddział Terenowy Nr 41 RCKiK",
    "phone": "29 765 16 64",
    "site": "",
    "street": "Jana Pawła II 120a",
    "voivodeship": "mazowieckie",
    "voivodeship_id": "8f14e45fceea167a5a36dedd4bea2543",
    "zip": "07-400"
  },
  "2a38a4a9316c49e5a833517c45d31070": {
    "city": "Warszawa",
    "id": "2a38a4a9316c49e5a833517c45d31070",
    "info": "czynne od 7:00 do 17:00",
    "latitude": 52.2327102,
    "longitude": 21.059973,
    "name": "RCKiK Warszawa",
    "phone": "22 514 60 00",
    "site": "http://www.rckik-warszawa.com.pl/",
    "street": "Saska 6375",
    "voivodeship": "mazowieckie",
    "voivodeship_id": "8f14e45fceea167a5a36dedd4bea2543",
    "zip": "03-948"
  },
  "2a79ea27c279e471f4d180b08d62b00a": {
    "city": "Olsztyn",
    "id": "2a79ea27c279e471f4d180b08d62b00a",
    "info": "od poniedziałku do piątku 7.00 – 15.00, rejestracja dawców do godziny 13.30, sobota - rejestracja dawców 7.00 - 13.00",
    "latitude": 53.7933961,
    "longitude": 20.4900214,
    "name": "RCKiK w Olsztynie",
    "phone": "89 526 63 02",
    "site": "http://www.rckikol.pl/",
    "street": "Hanki Sawickiej 27",
    "voivodeship": "warmińsko-mazurskie",
    "voivodeship_id": "aab3238922bcc25a6f606eb525ffdc56",
    "zip": "10-247"
  },
  "2b24d495052a8ce66358eb576b8912c8": {
    "city": "Starachowice",
    "id": "2b24d495052a8ce66358eb576b8912c8",
    "info": "",
    "latitude": 51.0592317,
    "longitude": 21.0676007,
    "name": "Zakład Opieki ZdrowOddział Terenowynej",
    "phone": "",
    "site": "",
    "street": "Radomska 35",
    "voivodeship": "świętokrzyskie",
    "voivodeship_id": "c51ce410c124a10e0db5e4b97fc2af39",
    "zip": "27-200"
  },
  "2b44928ae11fb9384c4cf38708677c48": {
    "city": "Zambrów",
    "id": "2b44928ae11fb9384c4cf38708677c48",
    "info": "",
    "latitude": 52.987421,
    "longitude": 22.252526,
    "name": "Punkt krwiodawstwa w Zambrowie",
    "phone": "",
    "site": "",
    "street": "Papieża Jana Pawła II 14",
    "voivodeship": "podlaskie",
    "voivodeship_id": "d3d9446802a44259755d38e6d163e820",
    "zip": "18-300"
  },
  "31fefc0e570cb3860f2a6d4b38c6490d": {
    "city": "Stargard Szczeciński",
    "id": "31fefc0e570cb3860f2a6d4b38c6490d",
    "info": "godziny rejestracji - 7:30 - 10:30",
    "latitude": 53.3447805,
    "longitude": 15.0378908,
    "name": "Oddział terenowy w Stargardzie Szczecińskim",
    "phone": "91 57 86 929",
    "site": "",
    "street": "Limanowskiego 24",
    "voivodeship": "zachodniopomorskie",
    "voivodeship_id": "c74d97b01eae257e44aa9d5bade97baf",
    "zip": "73-100"
  },
  "3295c76acbf4caaed33c36b1b5fc2cb1": {
    "city": "Sucha Beskidzka",
    "id": "3295c76acbf4caaed33c36b1b5fc2cb1",
    "info": "",
    "latitude": 49.736562,
    "longitude": 19.605005,
    "name": "Oddział Terenowy RCKiK w Krakowie",
    "phone": "",
    "site": "",
    "street": "Szpitalna 22",
    "voivodeship": "małopolskie",
    "voivodeship_id": "1679091c5a880faf6fb5e6087eb1b2dc",
    "zip": "34-200"
  },
  "32bb90e8976aab5298d5da10fe66f21d": {
    "city": "Garwolin",
    "id": "32bb90e8976aab5298d5da10fe66f21d",
    "info": "czynne od 7:00 do 13:30",
    "latitude": 51.8714514,
    "longitude": 21.6374373,
    "name": "Oddział Terenowy Nr 49 RCKiK",
    "phone": "25 682 46 17 w.268",
    "site": "",
    "street": "Lubelska 50",
    "voivodeship": "mazowieckie",
    "voivodeship_id": "8f14e45fceea167a5a36dedd4bea2543",
    "zip": "08-400"
  },
  "33e75ff09dd601bbe69f351039152189": {
    "city": "Tomaszów Lubelski",
    "id": "33e75ff09dd601bbe69f351039152189",
    "info": "",
    "latitude": 50.442021,
    "longitude": 23.417447,
    "name": "Oddział w Tomaszowie Lubelskim",
    "phone": "",
    "site": "",
    "street": "Lwowska 82",
    "voivodeship": "lubelskie",
    "voivodeship_id": "eccbc87e4b5ce2fe28308fd9f2a7baf3",
    "zip": "22-600"
  },
  "3416a75f4cea9109507cacd8e2f2aefc": {
    "city": "Łódź",
    "id": "3416a75f4cea9109507cacd8e2f2aefc",
    "info": "czynne poniedziałek, środa, piątek 8:00-15:30, wtorek, czwartek 8:00-17:30, sobota 8:00-13:30",
    "latitude": 51.7822277,
    "longitude": 19.4611778,
    "name": "RCKIK w Łodzi",
    "phone": "42 61 61 400",
    "site": "http://www.krwiodawstwo.pl/",
    "street": "Franciszkańska 17/25",
    "voivodeship": "łódzkie",
    "voivodeship_id": "e4da3b7fbbce2345d7772b0674a318d5",
    "zip": "91-433"
  },
  "34173cb38f07f89ddbebc2ac9128303f": {
    "city": "Zamość",
    "id": "34173cb38f07f89ddbebc2ac9128303f",
    "info": "poniedziałek - piątek 7:30-13:30",
    "latitude": 50.7123972,
    "longitude": 23.2880515,
    "name": "Oddział w Zamościu",
    "phone": "",
    "site": "",
    "street": "Al. Jana Pawła II 10",
    "voivodeship": "lubelskie",
    "voivodeship_id": "eccbc87e4b5ce2fe28308fd9f2a7baf3",
    "zip": "22-400"
  },
  "35f4a8d465e6e1edc05f3d8ab658c551": {
    "city": "Ostrów Mazowiecka",
    "id": "35f4a8d465e6e1edc05f3d8ab658c551",
    "info": "czynne od 7:00 do 13:30",
    "latitude": 52.7994551,
    "longitude": 21.9123622,
    "name": "Oddział Terenowy Nr 43 RCKiK",
    "phone": "29 746 37 65",
    "site": "",
    "street": "Dubois 68",
    "voivodeship": "mazowieckie",
    "voivodeship_id": "8f14e45fceea167a5a36dedd4bea2543",
    "zip": "07-300"
  },
  "3636638817772e42b59d74cff571fbb3": {
    "city": "Ostrzeszów",
    "id": "3636638817772e42b59d74cff571fbb3",
    "info": "",
    "latitude": 51.42698,
    "longitude": 17.929852,
    "name": "Terenowy Oddział RCKiK w Ostrzeszowie",
    "phone": "",
    "site": "",
    "street": "Zamkowa 17",
    "voivodeship": "wielkopolskie",
    "voivodeship_id": "9bf31c7ff062936a96d3c8bd1f8f2ff3",
    "zip": "63-500"
  },
  "37693cfc748049e45d87b8c7d8b9aacd": {
    "city": "Lubartów",
    "id": "37693cfc748049e45d87b8c7d8b9aacd",
    "info": "",
    "latitude": 51.456731,
    "longitude": 22.617363,
    "name": "Oddział w Lubartowie",
    "phone": "",
    "site": "",
    "street": "Cicha 14",
    "voivodeship": "lubelskie",
    "voivodeship_id": "eccbc87e4b5ce2fe28308fd9f2a7baf3",
    "zip": "21-100"
  },
  "37a749d808e46495a8da1e5352d03cae": {
    "city": "Giżycko",
    "id": "37a749d808e46495a8da1e5352d03cae",
    "info": "",
    "latitude": 54.0353762,
    "longitude": 21.7800606,
    "name": "Oddział Terenowy w Giżycku",
    "phone": "",
    "site": "",
    "street": "Bohaterów Westerplatte 4",
    "voivodeship": "warmińsko-mazurskie",
    "voivodeship_id": "aab3238922bcc25a6f606eb525ffdc56",
    "zip": "11-500"
  },
  "38af86134b65d0f10fe33d30dd76442e": {
    "city": "Wągrowiec",
    "id": "38af86134b65d0f10fe33d30dd76442e",
    "info": "czynne poniedziałek, wtorek, czwartek, rejestracja: 7.00-9.00",
    "latitude": 52.817975,
    "longitude": 17.204968,
    "name": "Oddział terenowy w Wągrowcu",
    "phone": "67 268 15 55",
    "site": "",
    "street": "Kościuszki 74",
    "voivodeship": "wielkopolskie",
    "voivodeship_id": "9bf31c7ff062936a96d3c8bd1f8f2ff3",
    "zip": "62-100"
  },
  "38b3eff8baf56627478ec76a704e9b52": {
    "city": "Przemyśl",
    "id": "38b3eff8baf56627478ec76a704e9b52",
    "info": "",
    "latitude": 49.8087142,
    "longitude": 22.779395,
    "name": "Oddział Terenowy Przemyśl",
    "phone": "16 670 36 56",
    "site": "",
    "street": "Monte Cassino 18",
    "voivodeship": "podkarpackie",
    "voivodeship_id": "45c48cce2e2d7fbdea1afc51c7c6ad26",
    "zip": "37-700"
  },
  "3988c7f88ebcb58c6ce932b957b6f332": {
    "city": "Zabrze",
    "id": "3988c7f88ebcb58c6ce932b957b6f332",
    "info": "rejestracja dawców 7.00 - 11.30",
    "latitude": 50.3249278,
    "longitude": 18.7857186,
    "name": "Oddział Terenowy Zabrze",
    "phone": "32 273 63 31, 32 37 ",
    "site": "",
    "street": "3-go Maja 13/15",
    "voivodeship": "śląskie",
    "voivodeship_id": "c20ad4d76fe97759aa27a0c99bff6710",
    "zip": "41-800"
  },
  "3c59dc048e8850243be8079a5c74d079": {
    "city": "Chełm",
    "id": "3c59dc048e8850243be8079a5c74d079",
    "info": "",
    "latitude": 51.1493236,
    "longitude": 23.4561715,
    "name": "Oddział w Chełmie",
    "phone": "",
    "site": "",
    "street": "Szpitalna 53",
    "voivodeship": "lubelskie",
    "voivodeship_id": "eccbc87e4b5ce2fe28308fd9f2a7baf3",
    "zip": "22-100"
  },
  "3def184ad8f4755ff269862ea77393dd": {
    "city": "Wejherowo   ",
    "id": "3def184ad8f4755ff269862ea77393dd",
    "info": "czynne pon.- pt. 7:00-11:30",
    "latitude": 54.6141761,
    "longitude": 18.245161,
    "name": "Oddział Terenowy Wejherowo",
    "phone": "58 677 06 08",
    "site": "",
    "street": "Jagalskiego 10",
    "voivodeship": "pomorskie",
    "voivodeship_id": "6512bd43d9caa6e02c990b0a82652dca",
    "zip": "84-200"
  },
  "3ef815416f775098fe977004015c6193": {
    "city": "Warszawa",
    "id": "3ef815416f775098fe977004015c6193",
    "info": "czynne od 7:00 do 13:00",
    "latitude": 52.206521,
    "longitude": 21.1920154,
    "name": "Oddział Terenowy Nr 27 RCKiK",
    "phone": "22 815 19 34",
    "site": "",
    "street": "Al. Dzieci Polskich 20",
    "voivodeship": "mazowieckie",
    "voivodeship_id": "8f14e45fceea167a5a36dedd4bea2543",
    "zip": "04-736"
  },
  "42a0e188f5033bc65bf8d78622277c4e": {
    "city": "Tarnowskie Góry",
    "id": "42a0e188f5033bc65bf8d78622277c4e",
    "info": "rejestracja dawców 7.00 - 10.30",
    "latitude": 50.4369287,
    "longitude": 18.8195062,
    "name": "Oddział Terenowy Tarnowskie Góry",
    "phone": "32 382 39 40",
    "site": "",
    "street": "Pyskowicka 47 do 51",
    "voivodeship": "śląskie",
    "voivodeship_id": "c20ad4d76fe97759aa27a0c99bff6710",
    "zip": "42-612"
  },
  "43ec517d68b6edd3015b3edc9a11367b": {
    "city": "Przasnysz",
    "id": "43ec517d68b6edd3015b3edc9a11367b",
    "info": "czynne od 7:00 do 13:30",
    "latitude": 53.0219904,
    "longitude": 20.8743884,
    "name": "Oddział Terenowy Nr 45 RCKiK",
    "phone": "29 753 42 96",
    "site": "",
    "street": "Szpitalna 4",
    "voivodeship": "mazowieckie",
    "voivodeship_id": "8f14e45fceea167a5a36dedd4bea2543",
    "zip": "06-300"
  },
  "44f683a84163b3523afe57c2e008bc8c": {
    "city": "Nowy Sącz",
    "id": "44f683a84163b3523afe57c2e008bc8c",
    "info": "",
    "latitude": 49.6267648,
    "longitude": 20.6896819,
    "name": "Oddział Terenowy RCKiK w Krakowie",
    "phone": "",
    "site": "",
    "street": "Kazimierza Wielkiego 9a",
    "voivodeship": "małopolskie",
    "voivodeship_id": "1679091c5a880faf6fb5e6087eb1b2dc",
    "zip": "33-300"
  },
  "45c48cce2e2d7fbdea1afc51c7c6ad26": {
    "city": "Wrocław",
    "id": "45c48cce2e2d7fbdea1afc51c7c6ad26",
    "info": "czynne 7.30-13.00, rejestracja dawców wroclaw@wckik.pl",
    "latitude": 51.0762334,
    "longitude": 17.0206541,
    "name": "Wrocław",
    "phone": "71 7 660 427",
    "site": "",
    "street": "Rudolfa Weigla 5",
    "voivodeship": "dolnośląskie",
    "voivodeship_id": "c4ca4238a0b923820dcc509a6f75849b",
    "zip": "53-114"
  },
  "47d1e990583c9c67424d369f3414728e": {
    "city": "Działdowo",
    "id": "47d1e990583c9c67424d369f3414728e",
    "info": "",
    "latitude": 53.241781,
    "longitude": 20.192546,
    "name": "Oddział Terenowy w Działdowie",
    "phone": "",
    "site": "",
    "street": "Leśna 1",
    "voivodeship": "warmińsko-mazurskie",
    "voivodeship_id": "aab3238922bcc25a6f606eb525ffdc56",
    "zip": "13-200"
  },
  "4c56ff4ce4aaf9573aa5dff913df997a": {
    "city": "Malbork",
    "id": "4c56ff4ce4aaf9573aa5dff913df997a",
    "info": "",
    "latitude": 54.0310737,
    "longitude": 19.021964,
    "name": "Oddział Terenowy Malbork",
    "phone": "55 646 02 92",
    "site": "",
    "street": "Armii Krajowej 105/106",
    "voivodeship": "pomorskie",
    "voivodeship_id": "6512bd43d9caa6e02c990b0a82652dca",
    "zip": "82-200"
  },
  "4c5bde74a8f110656874902f07378009": {
    "city": "Drawsko Pomorskie",
    "id": "4c5bde74a8f110656874902f07378009",
    "info": "godziny rejestracji - 8:00 - 11:00",
    "latitude": 53.525021,
    "longitude": 15.811733,
    "name": "Oddział terenowy w Drawsku Pomorskim",
    "phone": "94 363 03 25",
    "site": "",
    "street": "Bolesława Chrobrego 4",
    "voivodeship": "zachodniopomorskie",
    "voivodeship_id": "c74d97b01eae257e44aa9d5bade97baf",
    "zip": "78-500"
  },
  "4e732ced3463d06de0ca9a15b6153677": {
    "city": "Łuków",
    "id": "4e732ced3463d06de0ca9a15b6153677",
    "info": "",
    "latitude": 51.9248272,
    "longitude": 22.3786743,
    "name": "Oddział w Łukowie",
    "phone": "",
    "site": "",
    "street": "Doktora Andrzeja Rogalińskiego 3",
    "voivodeship": "lubelskie",
    "voivodeship_id": "eccbc87e4b5ce2fe28308fd9f2a7baf3",
    "zip": "21-400"
  },
  "54229abfcfa5649e7003b83dd4755294": {
    "city": "Brzeg",
    "id": "54229abfcfa5649e7003b83dd4755294",
    "info": "czynne od poniedziałku do piątku od godziny 7.00 do 13.00, rejestracja do 12.30",
    "latitude": 50.8577341,
    "longitude": 17.476167,
    "name": "Oddział Terenowy Brzeg",
    "phone": "77 444 65 73",
    "site": "",
    "street": "Mossora 1",
    "voivodeship": "opolskie",
    "voivodeship_id": "c9f0f895fb98ab9159f51fd0297e236d",
    "zip": "49-300"
  },
  "5878a7ab84fb43402106c575658472fa": {
    "city": "Nowy Tomyśl",
    "id": "5878a7ab84fb43402106c575658472fa",
    "info": "czynne poniedziałek, środa, czwartek, piątek, rejestracja 7.30-10.00",
    "latitude": 52.3146943,
    "longitude": 16.1429366,
    "name": "Oddział terenowy w Nowym Tomyślu",
    "phone": "61 442 73 54",
    "site": "",
    "street": "Sienkiewicza 7",
    "voivodeship": "wielkopolskie",
    "voivodeship_id": "9bf31c7ff062936a96d3c8bd1f8f2ff3",
    "zip": "64-300"
  },
  "58a2fc6ed39fd083f55d4182bf88826d": {
    "city": "Włocławek",
    "id": "58a2fc6ed39fd083f55d4182bf88826d",
    "info": "pn.,wt.,czw.,pt.- w godz. 7.30 - 11.30, śr.- w godz. 7.30 - 17.00",
    "latitude": 52.6588826,
    "longitude": 19.056255,
    "name": "Terenowy Oddział Włocławek (Pogotowie Ratunkowe)",
    "phone": "54 234-69-59",
    "street": "Lunewil 15",
    "voivodeship": "kujawsko-pomorskie",
    "voivodeship_id": "c81e728d9d4c2f636f067f89cc14862c",
    "zip": "87-810"
  },
  "5ef059938ba799aaa845e1c2e8a762bd": {
    "city": "Kartuzy ",
    "id": "5ef059938ba799aaa845e1c2e8a762bd",
    "info": "",
    "latitude": 54.2452912,
    "longitude": 17.8893412,
    "name": "Oddział Terenowy Kartuzy",
    "phone": "58 681 11 44",
    "site": "",
    "street": "Floriana Ceynowy 7",
    "voivodeship": "pomorskie",
    "voivodeship_id": "6512bd43d9caa6e02c990b0a82652dca",
    "zip": "83-300"
  },
  "5f93f983524def3dca464469d2cf9f3e": {
    "city": "Knyszyn",
    "id": "5f93f983524def3dca464469d2cf9f3e",
    "info": "",
    "latitude": 53.3307963,
    "longitude": 22.9217125,
    "name": "Punkt w Knyszynie",
    "phone": "716 79 45",
    "site": "",
    "street": "Grodzieńska 96",
    "voivodeship": "podlaskie",
    "voivodeship_id": "d3d9446802a44259755d38e6d163e820",
    "zip": "16-015"
  },
  "5fd0b37cd7dbbb00f97ba6ce92bf5add": {
    "city": "Suwałki",
    "id": "5fd0b37cd7dbbb00f97ba6ce92bf5add",
    "info": "",
    "latitude": 54.1195589,
    "longitude": 22.9252479,
    "name": "Oddział w Suwałkach",
    "phone": "87 567 21 12",
    "site": "",
    "street": "Szpitalna 60",
    "voivodeship": "podlaskie",
    "voivodeship_id": "d3d9446802a44259755d38e6d163e820",
    "zip": "16-100"
  },
  "6364d3f0f495b6ab9dcf8d3b5c6e0b01": {
    "city": "Międzyrzecz",
    "id": "6364d3f0f495b6ab9dcf8d3b5c6e0b01",
    "info": "czynne poniedziałek - wtorek, czwartek - piątek od 8.00 do 12.40, rejestracja dawców od 8.00 do 10.00",
    "latitude": 52.439969,
    "longitude": 15.584288,
    "name": "Oddział terenowy w Międzyrzeczu",
    "phone": "95 742 00 32",
    "site": "",
    "street": "Konstytucji 3 Maja 35",
    "voivodeship": "lubuskie",
    "voivodeship_id": "a87ff679a2f3e71d9181a67b7542122c",
    "zip": "66-300"
  },
  "642e92efb79421734881b53e1e1b18b6": {
    "city": "Skierniewice",
    "id": "642e92efb79421734881b53e1e1b18b6",
    "info": "czynne codziennie 8:00-11:30, czwartek – nieczynne",
    "latitude": 51.9547169,
    "longitude": 20.1583303,
    "name": "Punkt Pobrań - Nr 25",
    "phone": "",
    "site": "",
    "street": "Nowobielańska 61",
    "voivodeship": "łódzkie",
    "voivodeship_id": "e4da3b7fbbce2345d7772b0674a318d5",
    "zip": "96-100"
  },
  "6512bd43d9caa6e02c990b0a82652dca": {
    "city": "Brodnica",
    "id": "6512bd43d9caa6e02c990b0a82652dca",
    "info": "",
    "latitude": 53.2464665,
    "longitude": 19.4032685,
    "name": "Oddział Terenowy Brodnica",
    "phone": "",
    "site": "",
    "street": "18 Stycznia 36a",
    "voivodeship": "kujawsko-pomorskie",
    "voivodeship_id": "c81e728d9d4c2f636f067f89cc14862c",
    "zip": "87-300"
  },
  "65b9eea6e1cc6bb9f0cd2a47751a186f": {
    "city": "Tarnobrzeg",
    "id": "65b9eea6e1cc6bb9f0cd2a47751a186f",
    "info": "",
    "latitude": 50.566715,
    "longitude": 21.6706901,
    "name": "Oddział Terenowy Tarnobrzeg",
    "phone": "15 822 93 63",
    "site": "",
    "street": "Szpitalna 1",
    "voivodeship": "podkarpackie",
    "voivodeship_id": "45c48cce2e2d7fbdea1afc51c7c6ad26",
    "zip": "39-400"
  },
  "65ded5353c5ee48d0b7d48c591b8f430": {
    "city": "Katowice",
    "id": "65ded5353c5ee48d0b7d48c591b8f430",
    "info": "czynne od poniedziałku do piątku w godz 7:00 - 15:00, w czwartki do 18:00, w soboty 8:00 - 13:00",
    "latitude": 50.254765,
    "longitude": 19.0075939,
    "name": "RCKiK Katowice",
    "phone": "",
    "site": "http://www.rckik-katowice.pl/",
    "street": "Raciborska 15",
    "voivodeship": "śląskie",
    "voivodeship_id": "c20ad4d76fe97759aa27a0c99bff6710",
    "zip": "40-074"
  },
  "66f041e16a60928b05a7e228a89c3799": {
    "city": "Kraków",
    "id": "66f041e16a60928b05a7e228a89c3799",
    "info": "Rejestracja dawców odbywa się od poniedziałku do piątku w godzinach 7:15-16:30",
    "latitude": 50.0561324,
    "longitude": 19.9563021,
    "name": "RCKiK w Krakowie",
    "phone": "12 261 88 03",
    "site": "http://rckik.krakow.pl/",
    "street": "Rzeźnicza 11",
    "voivodeship": "małopolskie",
    "voivodeship_id": "1679091c5a880faf6fb5e6087eb1b2dc",
    "zip": "31-540"
  },
  "67c6a1e7ce56d3d6fa748ab6d9af3fd7": {
    "city": "Sieradz",
    "id": "67c6a1e7ce56d3d6fa748ab6d9af3fd7",
    "info": "czynne wtorek 8:00 - 11:00, piątek 8:00 - 11:00",
    "latitude": 51.5822312,
    "longitude": 18.7101975,
    "name": "Punkt Pobrań - Nr 20",
    "phone": "43 822 25 79",
    "site": "",
    "street": "Armii Krajowej 7",
    "voivodeship": "łódzkie",
    "voivodeship_id": "e4da3b7fbbce2345d7772b0674a318d5",
    "zip": "98-200"
  },
  "68d30a9594728bc39aa24be94b319d21": {
    "city": "Sierpc",
    "id": "68d30a9594728bc39aa24be94b319d21",
    "info": "czynne do 7:00 do 13:30",
    "latitude": 52.8515657,
    "longitude": 19.6735919,
    "name": "Oddział Terenowy Nr 40 RCKiK",
    "phone": "24 275 85 47",
    "site": "",
    "street": "Słowackiego 32",
    "voivodeship": "mazowieckie",
    "voivodeship_id": "8f14e45fceea167a5a36dedd4bea2543",
    "zip": "09-200"
  },
  "6974ce5ac660610b44d9b9fed0ff9548": {
    "city": "Sanok",
    "id": "6974ce5ac660610b44d9b9fed0ff9548",
    "info": "",
    "latitude": 49.551651,
    "longitude": 22.2024843,
    "name": "Oddział Terenowy Sanok",
    "phone": "13 464 33 53",
    "site": "",
    "street": "Konarskiego 24",
    "voivodeship": "podkarpackie",
    "voivodeship_id": "45c48cce2e2d7fbdea1afc51c7c6ad26",
    "zip": "38-500"
  },
  "698d51a19d8a121ce581499d7b701668": {
    "city": "Łomża",
    "id": "698d51a19d8a121ce581499d7b701668",
    "info": "czynne codziennie: 7.30 - 13.30 ",
    "latitude": 53.1603845,
    "longitude": 22.0853118,
    "name": "Oddział w Łomży",
    "phone": "86 219 81 32",
    "site": "",
    "street": "Al. Piłsudskiego 11",
    "voivodeship": "podlaskie",
    "voivodeship_id": "d3d9446802a44259755d38e6d163e820",
    "zip": "18-404"
  },
  "6c4b761a28b734fe93831e3fb400ce87": {
    "city": "Racibórz",
    "id": "6c4b761a28b734fe93831e3fb400ce87",
    "info": "poniedziałek, wtorek, środa, czwartek, piątek: 7.30 - 15.00",
    "latitude": 50.087002,
    "longitude": 18.2198088,
    "name": "RCKiK Racibórz",
    "phone": "",
    "site": "http://www.rckik.pl/",
    "street": "Sienkiewicza 2",
    "voivodeship": "warmińsko-mazurskie",
    "voivodeship_id": "aab3238922bcc25a6f606eb525ffdc56",
    "zip": "47-400"
  },
  "6c8349cc7260ae62e3b1396831a8398f": {
    "city": "Piotrków Trybunalski",
    "id": "6c8349cc7260ae62e3b1396831a8398f",
    "info": "czynne od 8:00 do 11:30, w środę i czwartek do 11:00",
    "latitude": 51.412545,
    "longitude": 19.6869351,
    "name": "Punkt Pobrań - Nr 14",
    "phone": "44 732 53 63",
    "site": "",
    "street": "Wojska Polskiego 77",
    "voivodeship": "łódzkie",
    "voivodeship_id": "e4da3b7fbbce2345d7772b0674a318d5",
    "zip": "97-300"
  },
  "6cdd60ea0045eb7a6ec44c54d29ed402": {
    "city": "Gryfino",
    "id": "6cdd60ea0045eb7a6ec44c54d29ed402",
    "info": "godziny rejestracji - 7:30 - 10:30",
    "latitude": 53.256401,
    "longitude": 14.48946,
    "name": "Oddział terenowy w Gryfinie",
    "phone": "91 416 40 89",
    "site": "",
    "street": "Bolesława Chrobrego 52",
    "voivodeship": "zachodniopomorskie",
    "voivodeship_id": "c74d97b01eae257e44aa9d5bade97baf",
    "zip": "74-100"
  },
  "6ea9ab1baa0efb9e19094440c317e21b": {
    "city": "Włodawa",
    "id": "6ea9ab1baa0efb9e19094440c317e21b",
    "info": "",
    "latitude": 51.558216,
    "longitude": 23.553391,
    "name": "Oddział we Włodawie",
    "phone": "",
    "site": "",
    "street": "Al. J. Piłsudskiego 66",
    "voivodeship": "lubelskie",
    "voivodeship_id": "eccbc87e4b5ce2fe28308fd9f2a7baf3",
    "zip": "22-200"
  },
  "6f4922f45568161a8cdf4ad2299f6d23": {
    "city": "Toruń",
    "id": "6f4922f45568161a8cdf4ad2299f6d23",
    "info": "",
    "latitude": 53.0284183,
    "longitude": 18.5853836,
    "name": "Wojewódzki Szpital Zespolony",
    "phone": "",
    "site": "",
    "street": "ul. Gagarina 212-216",
    "voivodeship": "kujawsko-pomorskie",
    "voivodeship_id": "c81e728d9d4c2f636f067f89cc14862c",
    "zip": "87-100"
  },
  "70efdf2ec9b086079795c442636b55fb": {
    "city": "Świecie",
    "id": "70efdf2ec9b086079795c442636b55fb",
    "info": "",
    "latitude": 53.4082686,
    "longitude": 18.4419036,
    "name": "Świecie",
    "phone": "",
    "site": "",
    "street": "Wojska Polskiego 126",
    "voivodeship": "kujawsko-pomorskie",
    "voivodeship_id": "c81e728d9d4c2f636f067f89cc14862c",
    "zip": "86-100"
  },
  "72b32a1f754ba1c09b3695e0cb6cde7f": {
    "city": "Kraków",
    "id": "72b32a1f754ba1c09b3695e0cb6cde7f",
    "info": "",
    "latitude": 50.0656101,
    "longitude": 20.0464842,
    "name": "Oddział w Krakowie",
    "phone": "",
    "site": "",
    "street": "Os. Na Skarpie 66a",
    "voivodeship": "małopolskie",
    "voivodeship_id": "1679091c5a880faf6fb5e6087eb1b2dc",
    "zip": "31-913"
  },
  "73278a4a86960eeb576a8fd4c9ec6997": {
    "city": "Sokółka",
    "id": "73278a4a86960eeb576a8fd4c9ec6997",
    "info": "czynne w poniedziałki",
    "latitude": 53.407549,
    "longitude": 23.485084,
    "name": "Punkt w Sokółce",
    "phone": "711 20 34",
    "site": "",
    "street": "Sikorskiego 40",
    "voivodeship": "podlaskie",
    "voivodeship_id": "d3d9446802a44259755d38e6d163e820",
    "zip": "16-100"
  },
  "735b90b4568125ed6c3f678819b6e058": {
    "city": "Tarnów",
    "id": "735b90b4568125ed6c3f678819b6e058",
    "info": "",
    "latitude": 50.0173072,
    "longitude": 20.9948727,
    "name": "Oddział Terenowy RCKiK w Krakowie",
    "phone": "",
    "site": "",
    "street": "Szpitalna 13",
    "voivodeship": "małopolskie",
    "voivodeship_id": "1679091c5a880faf6fb5e6087eb1b2dc",
    "zip": "33-100"
  },
  "7647966b7343c29048673252e490f736": {
    "city": "Warszawa",
    "id": "7647966b7343c29048673252e490f736",
    "info": "czynne 7.30-13.00",
    "latitude": 52.250202,
    "longitude": 21.0884076,
    "name": "WCKiK Warszawa",
    "phone": "22 681 67 16",
    "site": "",
    "street": "Szaserów 128",
    "voivodeship": "mazowieckie",
    "voivodeship_id": "8f14e45fceea167a5a36dedd4bea2543",
    "zip": "04-349"
  },
  "76dc611d6ebaafc66cc0879c71b5db5c": {
    "city": "Cieszyn",
    "id": "76dc611d6ebaafc66cc0879c71b5db5c",
    "info": "rejestracja dawców 7.00 - 10.00",
    "latitude": 49.7466578,
    "longitude": 18.6395174,
    "name": "Oddział Terenowy Cieszyn",
    "phone": "33 851 43 63",
    "site": "",
    "street": "Bielska 4",
    "voivodeship": "śląskie",
    "voivodeship_id": "c20ad4d76fe97759aa27a0c99bff6710",
    "zip": "43-400"
  },
  "7cbbc409ec990f19c78c75bd1e06f215": {
    "city": "Zakopane",
    "id": "7cbbc409ec990f19c78c75bd1e06f215",
    "info": "",
    "latitude": 49.3044616,
    "longitude": 19.9555787,
    "name": "Oddział Terenowy RCKiK w Krakowie",
    "phone": "",
    "site": "",
    "street": "Kamieniec 10",
    "voivodeship": "małopolskie",
    "voivodeship_id": "1679091c5a880faf6fb5e6087eb1b2dc",
    "zip": "34-500"
  },
  "7e7757b1e12abcb736ab9a754ffb617a": {
    "city": "Leszno",
    "id": "7e7757b1e12abcb736ab9a754ffb617a",
    "info": "czynne od poniedziałku do piątku, rejestracja: 7.30-12.00",
    "latitude": 51.8387479,
    "longitude": 16.6078,
    "name": "Oddział terenowy w Lesznie",
    "phone": "65 525 31 16",
    "site": "",
    "street": "Kiepury 45",
    "voivodeship": "wielkopolskie",
    "voivodeship_id": "9bf31c7ff062936a96d3c8bd1f8f2ff3",
    "zip": "64-100"
  },
  "7ef605fc8dba5425d6965fbd4c8fbe1f": {
    "city": "Ełk",
    "id": "7ef605fc8dba5425d6965fbd4c8fbe1f",
    "info": "",
    "latitude": 53.7938771,
    "longitude": 22.3395277,
    "name": "Oddział Terenowy w Ełku",
    "phone": "",
    "site": "",
    "street": "Baranki 24",
    "voivodeship": "warmińsko-mazurskie",
    "voivodeship_id": "aab3238922bcc25a6f606eb525ffdc56",
    "zip": "19-300"
  },
  "7f1de29e6da19d22b51c68001e7e0e54": {
    "city": "Sosnowiec",
    "id": "7f1de29e6da19d22b51c68001e7e0e54",
    "info": "rejestracja dawców 7.00 - 11.00",
    "latitude": 50.2711829,
    "longitude": 19.1317875,
    "name": "Oddział Terenowy Sosnowiec",
    "phone": "32 297 99 57, 32 290",
    "site": "",
    "street": "Zegadłowicza 3",
    "voivodeship": "śląskie",
    "voivodeship_id": "c20ad4d76fe97759aa27a0c99bff6710",
    "zip": "41-200"
  },
  "7f39f8317fbdb1988ef4c628eba02591": {
    "city": "Myślenice",
    "id": "7f39f8317fbdb1988ef4c628eba02591",
    "info": "",
    "latitude": 49.829086,
    "longitude": 19.946395,
    "name": "Oddział Terenowy RCKiK w Krakowie",
    "phone": "",
    "site": "",
    "street": "Szpitalna 2",
    "voivodeship": "małopolskie",
    "voivodeship_id": "1679091c5a880faf6fb5e6087eb1b2dc",
    "zip": "32-400"
  },
  "7f6ffaa6bb0b408017b62254211691b5": {
    "city": "Siemiatycze",
    "id": "7f6ffaa6bb0b408017b62254211691b5",
    "info": "",
    "latitude": 52.423302,
    "longitude": 22.863104,
    "name": "Punkt krwiodawstwa w Siemiatyczach",
    "phone": "",
    "site": "",
    "street": "Pałacowa 24",
    "voivodeship": "podlaskie",
    "voivodeship_id": "d3d9446802a44259755d38e6d163e820",
    "zip": "17-300"
  },
  "812b4ba287f5ee0bc9d43bbf5bbe87fb": {
    "city": "Opole",
    "id": "812b4ba287f5ee0bc9d43bbf5bbe87fb",
    "info": "od poniedziałku do piątku w godzinach od 7.00 do 17.00 (rejestracja do 16.30) oraz w soboty od 8.00 - 13.30",
    "latitude": 50.6705692,
    "longitude": 17.938949,
    "name": "RCKiK w Opolu",
    "phone": "77 441 08 20",
    "site": "http://www.rckik-opole.com.pl/",
    "street": "Kośnego 55",
    "voivodeship": "opolskie",
    "voivodeship_id": "c9f0f895fb98ab9159f51fd0297e236d",
    "zip": "45-372"
  },
  "82161242827b703e6acf9c726942a1e4": {
    "city": "Turek",
    "id": "82161242827b703e6acf9c726942a1e4",
    "info": "",
    "latitude": 52.010387,
    "longitude": 18.490857,
    "name": "Terenowy Oddział RCKiK w Turku",
    "phone": "",
    "site": "",
    "street": "Poduchowne 1",
    "voivodeship": "wielkopolskie",
    "voivodeship_id": "9bf31c7ff062936a96d3c8bd1f8f2ff3",
    "zip": "62-700"
  },
  "82aa4b0af34c2313a562076992e50aa3": {
    "city": "Kalisz",
    "id": "82aa4b0af34c2313a562076992e50aa3",
    "info": "",
    "latitude": 51.7701199,
    "longitude": 18.1036635,
    "name": "Centrum Krwiodawstwa w Kaliszu",
    "phone": "62 767 66 63",
    "site": "",
    "street": "Kaszubska 9",
    "voivodeship": "wielkopolskie",
    "voivodeship_id": "9bf31c7ff062936a96d3c8bd1f8f2ff3",
    "zip": "62-800"
  },
  "8613985ec49eb8f757ae6439e879bb2a": {
    "city": "Wyszków",
    "id": "8613985ec49eb8f757ae6439e879bb2a",
    "info": "czynne od 7:00 do 13:30",
    "latitude": 52.5864773,
    "longitude": 21.4442014,
    "name": "Oddział Terenowy Nr 44 RCKiK",
    "phone": "29 743 76 74",
    "site": "",
    "street": "Komisji Edukacji Narodowej 1",
    "voivodeship": "mazowieckie",
    "voivodeship_id": "8f14e45fceea167a5a36dedd4bea2543",
    "zip": "07-200"
  },
  "8d5e957f297893487bd98fa830fa6413": {
    "city": "Bartoszyce",
    "id": "8d5e957f297893487bd98fa830fa6413",
    "info": "",
    "latitude": 54.258541,
    "longitude": 20.792365,
    "name": "Oddział Terenowy w Bartoszycach",
    "phone": "",
    "site": "",
    "street": "Wyszyńskiego 11",
    "voivodeship": "warmińsko-mazurskie",
    "voivodeship_id": "aab3238922bcc25a6f606eb525ffdc56",
    "zip": "11-200"
  },
  "8e296a067a37563370ded05f5a3bf3ec": {
    "city": "Lublin",
    "id": "8e296a067a37563370ded05f5a3bf3ec",
    "info": "czynne 8.00-13.00, lublin@wckik.pl",
    "latitude": 51.2506579,
    "longitude": 22.5328375,
    "name": "WCKiK Lublin",
    "phone": "81 7 183 266",
    "site": "",
    "street": "Al. Racławickie 23",
    "voivodeship": "lubelskie",
    "voivodeship_id": "eccbc87e4b5ce2fe28308fd9f2a7baf3",
    "zip": "20-049"
  },
  "8f14e45fceea167a5a36dedd4bea2543": {
    "city": "Wałbrzych",
    "id": "8f14e45fceea167a5a36dedd4bea2543",
    "info": "czynne od poniedziałku do piątku 7.00 - 13.30 pierwsza sobota każdego miesiąca 8.00 - 12.00",
    "latitude": 50.7740967,
    "longitude": 16.2748552,
    "name": "RCKiK w Wałbrzychu",
    "phone": "",
    "site": "http://www.rckik.walbrzych.pl/",
    "street": "Bolesława Chrobrego 31",
    "voivodeship": "dolnośląskie",
    "voivodeship_id": "c4ca4238a0b923820dcc509a6f75849b",
    "zip": "58-300"
  },
  "8f53295a73878494e9bc8dd6c3c7104f": {
    "city": "Złotów",
    "id": "8f53295a73878494e9bc8dd6c3c7104f",
    "info": "czynne poniedziałek, środa, piątek, rejestracja: 7.00-9.30",
    "latitude": 53.3559123,
    "longitude": 17.0438489,
    "name": "Oddział terenowy w Złotowie",
    "phone": "67 263 32 57 w.308",
    "site": "",
    "street": "Szpitalna 24",
    "voivodeship": "wielkopolskie",
    "voivodeship_id": "9bf31c7ff062936a96d3c8bd1f8f2ff3",
    "zip": "77-400"
  },
  "8f85517967795eeef66c225f7883bdcb": {
    "city": "Września",
    "id": "8f85517967795eeef66c225f7883bdcb",
    "info": "czynne wtorek, środa, czwartek, piątek, rejestracja: 7.30-10.30",
    "latitude": 52.325057,
    "longitude": 17.573374,
    "name": "Oddział terenowy we Wrześni",
    "phone": "61 436 20 03",
    "site": "",
    "street": "Słowackiego 2",
    "voivodeship": "wielkopolskie",
    "voivodeship_id": "9bf31c7ff062936a96d3c8bd1f8f2ff3",
    "zip": "62-300"
  },
  "903ce9225fca3e988c2af215d4e544d3": {
    "city": "Sandomierz ",
    "id": "903ce9225fca3e988c2af215d4e544d3",
    "info": "",
    "latitude": 50.6980043,
    "longitude": 21.748717,
    "name": "Samodzielny Publiczny Zespół Zakładów Opieki ZdrowOddział Terenowynej",
    "phone": "",
    "site": "",
    "street": "Schinzla 13",
    "voivodeship": "świętokrzyskie",
    "voivodeship_id": "c51ce410c124a10e0db5e4b97fc2af39",
    "zip": "27-600"
  },
  "92cc227532d17e56e07902b254dfad10": {
    "city": "Kędzierzyn-Koźle",
    "id": "92cc227532d17e56e07902b254dfad10",
    "info": "czynne od poniedziałku do piątku od godziny 7.00 do 13.00, rejestracja do 12.30",
    "latitude": 50.342264,
    "longitude": 18.199681,
    "name": "Oddział Terenowy Kędzierzyn-Koźle",
    "phone": "77 484 96 94",
    "site": "",
    "street": "Koszykowa 5b",
    "voivodeship": "opolskie",
    "voivodeship_id": "c9f0f895fb98ab9159f51fd0297e236d",
    "zip": "47-220"
  },
  "93db85ed909c13838ff95ccfa94cebd9": {
    "city": "Warszawa",
    "id": "93db85ed909c13838ff95ccfa94cebd9",
    "info": "czynne od 7:00 do 13:00",
    "latitude": 52.2264192,
    "longitude": 21.0015814,
    "name": "Oddział Terenowy Nr 12 RCKiK",
    "phone": "22 502 11 06",
    "site": "",
    "street": "Nowogrodzka 59",
    "voivodeship": "mazowieckie",
    "voivodeship_id": "8f14e45fceea167a5a36dedd4bea2543",
    "zip": "02-005"
  },
  "96da2f590cd7246bbde0051047b0d6f7": {
    "city": "Wolsztyn",
    "id": "96da2f590cd7246bbde0051047b0d6f7",
    "info": "czynne poniedziałek, środa, czwartek, piątek, rejestracja: 8.00-10.00",
    "latitude": 52.116623,
    "longitude": 16.117879,
    "name": "Oddział terenowy w Wolsztynie",
    "phone": "67 347 73 52",
    "site": "",
    "street": "Wschowska 3",
    "voivodeship": "wielkopolskie",
    "voivodeship_id": "9bf31c7ff062936a96d3c8bd1f8f2ff3",
    "zip": "64-200"
  },
  "9766527f2b5d3e95d4a733fcfb77bd7e": {
    "city": "Krotoszyn",
    "id": "9766527f2b5d3e95d4a733fcfb77bd7e",
    "info": "",
    "latitude": 51.6965283,
    "longitude": 17.4359425,
    "name": "Terenowy Oddział RCKiK w Kroszynie",
    "phone": "",
    "site": "",
    "street": "Młyńska 2",
    "voivodeship": "wielkopolskie",
    "voivodeship_id": "9bf31c7ff062936a96d3c8bd1f8f2ff3",
    "zip": "63-70"
  },
  "9778d5d219c5080b9a6a17bef029331c": {
    "city": "Radom",
    "id": "9778d5d219c5080b9a6a17bef029331c",
    "info": "czynne 7-13.30",
    "latitude": 51.3980734,
    "longitude": 21.1374078,
    "name": "RCKiK w Radomiu",
    "phone": "",
    "site": "http://rckik.radom.pl/",
    "street": "Limanowskiego 42",
    "voivodeship": "mazowieckie",
    "voivodeship_id": "8f14e45fceea167a5a36dedd4bea2543",
    "zip": "26-600"
  },
  "9872ed9fc22fc182d371c3e9ed316094": {
    "city": "Koszalin",
    "id": "9872ed9fc22fc182d371c3e9ed316094",
    "info": "godziny rejestracji - 7:45 - 11:00",
    "latitude": 54.19635,
    "longitude": 16.2146463,
    "name": "Oddział terenowy w Koszalinie",
    "phone": "94 34 18 603",
    "site": "",
    "street": "Chałubińskiego 7",
    "voivodeship": "zachodniopomorskie",
    "voivodeship_id": "c74d97b01eae257e44aa9d5bade97baf",
    "zip": "75-581"
  },
  "98dce83da57b0395e163467c9dae521b": {
    "city": "Kluczbork",
    "id": "98dce83da57b0395e163467c9dae521b",
    "info": "czynne od poniedziałku do piątku od godziny 7.00 do 11.30, rejestracja do 11.00",
    "latitude": 50.9736595,
    "longitude": 18.2249296,
    "name": "Oddział Terenowy Kluczbork",
    "phone": "77 447 15 15",
    "site": "",
    "street": "Katowicka 26",
    "voivodeship": "opolskie",
    "voivodeship_id": "c9f0f895fb98ab9159f51fd0297e236d",
    "zip": "46-200"
  },
  "98f13708210194c475687be6106a3b84": {
    "city": "Biała Podlaska",
    "id": "98f13708210194c475687be6106a3b84",
    "info": "",
    "latitude": 52.045326,
    "longitude": 23.1105701,
    "name": "Oddział w Białej Podlaskiej",
    "phone": "",
    "site": "",
    "street": "Terebelska 57/65",
    "voivodeship": "lubelskie",
    "voivodeship_id": "eccbc87e4b5ce2fe28308fd9f2a7baf3",
    "zip": "21-500"
  },
  "9a1158154dfa42caddbd0694a4e9bdc8": {
    "city": "Bochnia",
    "id": "9a1158154dfa42caddbd0694a4e9bdc8",
    "info": "",
    "latitude": 49.966047,
    "longitude": 20.420544,
    "name": "Oddział Terenowy RCKiK w Krakowie",
    "phone": "",
    "site": "",
    "street": "Krakowska 33",
    "voivodeship": "małopolskie",
    "voivodeship_id": "1679091c5a880faf6fb5e6087eb1b2dc",
    "zip": "32-700"
  },
  "9b8619251a19057cff70779273e95aa6": {
    "city": "Dąbrowa Górnicza",
    "id": "9b8619251a19057cff70779273e95aa6",
    "info": "rejestracja dawców 7.00 - 10.30",
    "latitude": 50.320531,
    "longitude": 19.1760542,
    "name": "Oddział Terenowy Dąbrowa Górnicza",
    "phone": "32 261 44 64",
    "site": "",
    "street": "Szpitalna 13",
    "voivodeship": "śląskie",
    "voivodeship_id": "c20ad4d76fe97759aa27a0c99bff6710",
    "zip": "41-300"
  },
  "9bf31c7ff062936a96d3c8bd1f8f2ff3": {
    "city": "Grudziądz",
    "id": "9bf31c7ff062936a96d3c8bd1f8f2ff3",
    "info": "",
    "latitude": 53.4934787,
    "longitude": 18.7574266,
    "name": "Szpital Specjalistyczny",
    "phone": "",
    "site": "",
    "street": "Włodka 16-18",
    "voivodeship": "kujawsko-pomorskie",
    "voivodeship_id": "c81e728d9d4c2f636f067f89cc14862c",
    "zip": "86-300"
  },
  "9dcb88e0137649590b755372b040afad": {
    "city": "Szczecin",
    "id": "9dcb88e0137649590b755372b040afad",
    "info": "czynne poniedziałek - piątek od 7.15 do 13.15 sobota od 7.15 do 12.00",
    "latitude": 53.436564,
    "longitude": 14.53661,
    "name": "RCKiK w Szczecinie",
    "phone": "91 42 43 600",
    "site": "http://bip.krwiodawstwo.szczecin.pl/",
    "street": "Al. Wojska Polskiego 80/82",
    "voivodeship": "zachodniopomorskie",
    "voivodeship_id": "c74d97b01eae257e44aa9d5bade97baf",
    "zip": "70-482"
  },
  "9f61408e3afb633e50cdf1b20de6f466": {
    "city": "Kraków",
    "id": "9f61408e3afb633e50cdf1b20de6f466",
    "info": "",
    "latitude": 50.0133374,
    "longitude": 20.0008006,
    "name": "Oddział w Krakowie",
    "phone": "",
    "site": "",
    "street": "Wielicka 265",
    "voivodeship": "małopolskie",
    "voivodeship_id": "1679091c5a880faf6fb5e6087eb1b2dc",
    "zip": "30-663"
  },
  "9fc3d7152ba9336a670e36d0ed79bc43": {
    "city": "Knurów",
    "id": "9fc3d7152ba9336a670e36d0ed79bc43",
    "info": "czynne każdy poniedziałek i piątek w godz. 8:00 - 11:00",
    "latitude": 50.2216535,
    "longitude": 18.6718903,
    "name": "Stacjonarne punkty oddawania krwi w Knurowie",
    "phone": "",
    "site": "",
    "street": "Dworcowa 1",
    "voivodeship": "śląskie",
    "voivodeship_id": "c20ad4d76fe97759aa27a0c99bff6710",
    "zip": "44-190"
  },
  "a0a080f42e6f13b3a2df133f073095dd": {
    "city": "Słupsk",
    "id": "a0a080f42e6f13b3a2df133f073095dd",
    "info": "czynne od poniedziałku do piątku w dni robocze ",
    "latitude": 54.4695679,
    "longitude": 17.0327976,
    "name": "RCKiK Slupsk",
    "phone": "59 842 20 21",
    "site": "http://www.krwiodawstwo.slupsk.pl/",
    "street": "Szarych Szeregów 21",
    "voivodeship": "pomorskie",
    "voivodeship_id": "6512bd43d9caa6e02c990b0a82652dca",
    "zip": "76-200"
  },
  "a1d0c6e83f027327d8461063f4ac58a6": {
    "city": "Łódź",
    "id": "a1d0c6e83f027327d8461063f4ac58a6",
    "info": "czynne wtorek 8:00 - 12:00, czwartek 8:00 - 12:00",
    "latitude": 51.7596725,
    "longitude": 19.4542759,
    "name": "Punkt Pobrań, Wojewódzka Poradnia Zaopatrzenia Ortopedycznego",
    "phone": "42 6161416",
    "site": "",
    "street": "Wólczańska 114",
    "voivodeship": "łódzkie",
    "voivodeship_id": "e4da3b7fbbce2345d7772b0674a318d5",
    "zip": "90-521"
  },
  "a2557a7b2e94197ff767970b67041697": {
    "city": "Szczecin",
    "id": "a2557a7b2e94197ff767970b67041697",
    "info": "czynne 7.30 - 15.00, rejestracja dawców 7.30 - 13.00",
    "latitude": 53.4427773,
    "longitude": 14.5419457,
    "name": "WCKiK Szczecin",
    "phone": "91 889 56 42",
    "site": "",
    "street": "Piotra Skargi 9-11",
    "voivodeship": "zachodniopomorskie",
    "voivodeship_id": "c74d97b01eae257e44aa9d5bade97baf",
    "zip": "71-422"
  },
  "a3c65c2974270fd093ee8a9bf8ae7d0b": {
    "city": "Grajewo",
    "id": "a3c65c2974270fd093ee8a9bf8ae7d0b",
    "info": "czynne w czwartki od 8:00 do 11:00",
    "latitude": 53.6471559,
    "longitude": 22.455217,
    "name": "Punkt krwiodawstwa w Grajewie",
    "phone": "86 272 32 79",
    "site": "",
    "street": "Os. Południe 9",
    "voivodeship": "podlaskie",
    "voivodeship_id": "d3d9446802a44259755d38e6d163e820",
    "zip": "19-200"
  },
  "a3f390d88e4c41f2747bfa2f1b5f87db": {
    "city": "Tarnów",
    "id": "a3f390d88e4c41f2747bfa2f1b5f87db",
    "info": "",
    "latitude": 50.0129702,
    "longitude": 21.0336387,
    "name": "Oddział Terenowy RCKiK w Krakowie",
    "phone": "",
    "site": "",
    "street": "Lwowska 178a",
    "voivodeship": "małopolskie",
    "voivodeship_id": "1679091c5a880faf6fb5e6087eb1b2dc",
    "zip": "33-100"
  },
  "a4a042cf4fd6bfb47701cbc8a1653ada": {
    "city": "Poznań",
    "id": "a4a042cf4fd6bfb47701cbc8a1653ada",
    "info": "poniedziałek, wtorek, piątek: 7-15, środa, czwartek: 7 – 18, sobota: 7 – 13",
    "latitude": 52.404614,
    "longitude": 16.8830633,
    "name": "RCKIK w Poznaniu",
    "phone": "61 886 33 00",
    "site": "http://www.rckik.poznan.pl/",
    "street": "Marcelińska 44",
    "voivodeship": "wielkopolskie",
    "voivodeship_id": "9bf31c7ff062936a96d3c8bd1f8f2ff3",
    "zip": "60-354"
  },
  "a5771bce93e200c36f7cd9dfd0e5deaa": {
    "city": "Kutno",
    "id": "a5771bce93e200c36f7cd9dfd0e5deaa",
    "info": "czynne codziennie od 8:00 do 11:00",
    "latitude": 52.238621,
    "longitude": 19.3722028,
    "name": "Punkt Pobrań - Nr 63, Samodzielny Publiczny ZOZ Szpital Miejski im. dr A. Troczewskiego",
    "phone": "24 254 85 29",
    "site": "",
    "street": "Kościuszki 52",
    "voivodeship": "łódzkie",
    "voivodeship_id": "e4da3b7fbbce2345d7772b0674a318d5",
    "zip": "99-300"
  },
  "a5bfc9e07964f8dddeb95fc584cd965d": {
    "city": "Bełchatów",
    "id": "a5bfc9e07964f8dddeb95fc584cd965d",
    "info": "czynne od 8:30 do 11:30, czwartek 7:30 - 10:00, piątek 7:30 - 11:00",
    "latitude": 51.3733305,
    "longitude": 19.3519894,
    "name": "Punkt Pobrań - Nr 19, NZOZ Mega-Med",
    "phone": "44 633 18 40",
    "site": "",
    "street": "Czaplinieckiej 93/95",
    "voivodeship": "łódzkie",
    "voivodeship_id": "e4da3b7fbbce2345d7772b0674a318d5",
    "zip": "97-400"
  },
  "a5e00132373a7031000fd987a3c9f87b": {
    "city": "Staszów ",
    "id": "a5e00132373a7031000fd987a3c9f87b",
    "info": "",
    "latitude": 50.5629974,
    "longitude": 21.1659309,
    "name": "Samodzielny Publiczny Zespół Zakładów Opieki ZdrowOddział Terenowynej",
    "phone": "",
    "site": "",
    "street": "11-go Listopada 78",
    "voivodeship": "świętokrzyskie",
    "voivodeship_id": "c51ce410c124a10e0db5e4b97fc2af39",
    "zip": "28-200"
  },
  "a684eceee76fc522773286a895bc8436": {
    "city": "Chrzanów",
    "id": "a684eceee76fc522773286a895bc8436",
    "info": "",
    "latitude": 50.1367738,
    "longitude": 19.4287066,
    "name": "Oddział Terenowy RCKiK w Krakowie",
    "phone": "",
    "site": "",
    "street": "Topolowa 16",
    "voivodeship": "małopolskie",
    "voivodeship_id": "1679091c5a880faf6fb5e6087eb1b2dc",
    "zip": "32-500"
  },
  "a87ff679a2f3e71d9181a67b7542122c": {
    "city": "Kłodzko",
    "id": "a87ff679a2f3e71d9181a67b7542122c",
    "info": "czynne 7.00 - 11.30",
    "latitude": 50.4556396,
    "longitude": 16.6596876,
    "name": "Kłodzko",
    "phone": "74 865 12 43",
    "site": "",
    "street": "Szpitalna 1",
    "voivodeship": "dolnośląskie",
    "voivodeship_id": "c4ca4238a0b923820dcc509a6f75849b",
    "zip": "57-300"
  },
  "a8baa56554f96369ab93e4f3bb068c22": {
    "city": "Ostrowiec Świętokrzyski ",
    "id": "a8baa56554f96369ab93e4f3bb068c22",
    "info": "",
    "latitude": 50.9524898,
    "longitude": 21.3614097,
    "name": "Zespół Opieki ZdrowOddział Terenowynej",
    "phone": "",
    "site": "",
    "street": "Szymanowskiego 11",
    "voivodeship": "świętokrzyskie",
    "voivodeship_id": "c51ce410c124a10e0db5e4b97fc2af39",
    "zip": "27-400"
  },
  "a8f15eda80c50adb0e71943adc8015cf": {
    "city": "Ełk",
    "id": "a8f15eda80c50adb0e71943adc8015cf",
    "info": "czynne 7.30-13.00, elk@wckik.pl",
    "latitude": 51.564059,
    "longitude": 15.546385,
    "name": "WCKiK Ełk",
    "phone": "87 62 19 948",
    "site": "",
    "street": "Kościuszki 30",
    "voivodeship": "warmińsko-mazurskie",
    "voivodeship_id": "aab3238922bcc25a6f606eb525ffdc56",
    "zip": "19-300"
  },
  "a97da629b098b75c294dffdc3e463904": {
    "city": "Bielsk Podlaski",
    "id": "a97da629b098b75c294dffdc3e463904",
    "info": "",
    "latitude": 52.759671,
    "longitude": 23.202327,
    "name": "Oddział w Bielsku Podlaskim",
    "phone": "730 98 24",
    "site": "",
    "street": "Kleszczelowska 1",
    "voivodeship": "podlaskie",
    "voivodeship_id": "d3d9446802a44259755d38e6d163e820",
    "zip": "17-100"
  },
  "aab3238922bcc25a6f606eb525ffdc56": {
    "city": "Chełmno",
    "id": "aab3238922bcc25a6f606eb525ffdc56",
    "info": "",
    "latitude": 53.344259,
    "longitude": 18.420768,
    "name": "Zakład Opieki Zdrowotnej",
    "phone": "",
    "site": "",
    "street": "Plac Rydygiera 1",
    "voivodeship": "kujawsko-pomorskie",
    "voivodeship_id": "c81e728d9d4c2f636f067f89cc14862c",
    "zip": "86-200"
  },
  "ac627ab1ccbdb62ec96e702f07f6425b": {
    "city": "Leżajsk",
    "id": "ac627ab1ccbdb62ec96e702f07f6425b",
    "info": "",
    "latitude": 50.2718858,
    "longitude": 22.4015366,
    "name": "Oddział Terenowy Leżajsk",
    "phone": "17 242 03 07",
    "site": "",
    "street": "Leśna 22",
    "voivodeship": "podkarpackie",
    "voivodeship_id": "45c48cce2e2d7fbdea1afc51c7c6ad26",
    "zip": "37-300"
  },
  "ad61ab143223efbc24c7d2583be69251": {
    "city": "Maków Mazowiecki",
    "id": "ad61ab143223efbc24c7d2583be69251",
    "info": "czynne od 7:00 do 13:30",
    "latitude": 52.8620747,
    "longitude": 21.0871521,
    "name": "Oddział Terenowy Nr 42 RCKiK",
    "phone": "29 717 11 27",
    "site": "",
    "street": "Witosa 2",
    "voivodeship": "mazowieckie",
    "voivodeship_id": "8f14e45fceea167a5a36dedd4bea2543",
    "zip": "06-200"
  },
  "b3e3e393c77e35a4a3f3cbd1e429b5dc": {
    "city": "Iława",
    "id": "b3e3e393c77e35a4a3f3cbd1e429b5dc",
    "info": "",
    "latitude": 53.586071,
    "longitude": 19.566362,
    "name": "Oddział Terenowy w Iławie",
    "phone": "",
    "site": "",
    "street": "Władysława Andersa 3",
    "voivodeship": "warmińsko-mazurskie",
    "voivodeship_id": "aab3238922bcc25a6f606eb525ffdc56",
    "zip": "11-200"
  },
  "b53b3a3d6ab90ce0268229151c9bde11": {
    "city": "Gorlice",
    "id": "b53b3a3d6ab90ce0268229151c9bde11",
    "info": "",
    "latitude": 49.650702,
    "longitude": 21.162708,
    "name": "Oddział Terenowy RCKiK w Krakowie",
    "phone": "",
    "site": "",
    "street": "Węgierska 21",
    "voivodeship": "małopolskie",
    "voivodeship_id": "1679091c5a880faf6fb5e6087eb1b2dc",
    "zip": "38-300"
  },
  "b6d767d2f8ed5d21a44b0e5886680cb9": {
    "city": "Kraśnik",
    "id": "b6d767d2f8ed5d21a44b0e5886680cb9",
    "info": "",
    "latitude": 50.962636,
    "longitude": 22.1653724,
    "name": "Oddział w Kraśniku",
    "phone": "",
    "site": "",
    "street": "Al. Niepodległości 25",
    "voivodeship": "lubelskie",
    "voivodeship_id": "eccbc87e4b5ce2fe28308fd9f2a7baf3",
    "zip": "23-204"
  },
  "b73ce398c39f506af761d2277d853a92": {
    "city": "Gniezno",
    "id": "b73ce398c39f506af761d2277d853a92",
    "info": "czynne wtorek, środa, czwartek, piątek, rejestracja 7.30-9.00",
    "latitude": 52.5383223,
    "longitude": 17.5966357,
    "name": "Oddział terenowy w Gnieźnie",
    "phone": "61 426 44 61 w.277",
    "site": "",
    "street": "Św. Jana 9",
    "voivodeship": "wielkopolskie",
    "voivodeship_id": "9bf31c7ff062936a96d3c8bd1f8f2ff3",
    "zip": "62-200"
  },
  "bd4c9ab730f5513206b999ec0d90d1fb": {
    "city": "Gostyń",
    "id": "bd4c9ab730f5513206b999ec0d90d1fb",
    "info": "czynne poniedziałek, wtorek, środa, czwartek, piątek, rejestracja: 7.00-10.00",
    "latitude": 51.8818041,
    "longitude": 17.0125264,
    "name": "Oddział terenowy w Gostyniu",
    "phone": "65 572 24 82",
    "site": "",
    "street": "Marcinkowskiego 89",
    "voivodeship": "wielkopolskie",
    "voivodeship_id": "9bf31c7ff062936a96d3c8bd1f8f2ff3",
    "zip": "63-800"
  },
  "bf8229696f7a3bb4700cfddef19fa23f": {
    "city": "Trzcianka",
    "id": "bf8229696f7a3bb4700cfddef19fa23f",
    "info": "czynne czwartek, rejestracja: 8.00-12.00",
    "latitude": 53.0396154,
    "longitude": 16.4631697,
    "name": "Oddział terenowy w Trzciance",
    "phone": "67 352 32 57",
    "site": "",
    "street": "Gen. Sikorskiego 9",
    "voivodeship": "wielkopolskie",
    "voivodeship_id": "9bf31c7ff062936a96d3c8bd1f8f2ff3",
    "zip": "64-980"
  },
  "c0c7c76d30bd3dcaefc96f40275bdc0a": {
    "city": "Wieluń",
    "id": "c0c7c76d30bd3dcaefc96f40275bdc0a",
    "info": "czynne poniedziałek - środa od 8:00 do 10:00",
    "latitude": 51.22828,
    "longitude": 18.5621931,
    "name": "Punkt Pobrań - Nr 22",
    "phone": "",
    "site": "",
    "street": "Sieradzka 56",
    "voivodeship": "łódzkie",
    "voivodeship_id": "e4da3b7fbbce2345d7772b0674a318d5",
    "zip": "98-300"
  },
  "c16a5320fa475530d9583c34fd356ef5": {
    "city": "Gorzów Wlkp.",
    "id": "c16a5320fa475530d9583c34fd356ef5",
    "info": "czynne poniedziałek - piątek od 7.00 do 14.35, rejestracja dawców od 7.00 do 12.00",
    "latitude": 52.7626676,
    "longitude": 15.2367654,
    "name": "Oddział terenowy w Gorzowie Wielkopolskim",
    "phone": "95 722 92 49",
    "site": "",
    "street": "Dekerta 1",
    "voivodeship": "lubuskie",
    "voivodeship_id": "a87ff679a2f3e71d9181a67b7542122c",
    "zip": "66-400"
  },
  "c20ad4d76fe97759aa27a0c99bff6710": {
    "city": "Bydgoszcz",
    "id": "c20ad4d76fe97759aa27a0c99bff6710",
    "info": "czynne codziennie 7.30 - 15.00, czwartki 7.30 - 17.30, wszystkie soboty 8.00 - 12.00",
    "latitude": 53.1263125,
    "longitude": 18.0135327,
    "name": "RCKiK w Bydgoszczy",
    "phone": "322 18 71",
    "site": "http://www.rckik-bydgoszcz.com.pl/",
    "street": "Markwarta 8",
    "voivodeship": "kujawsko-pomorskie",
    "voivodeship_id": "c81e728d9d4c2f636f067f89cc14862c",
    "zip": "85-015"
  },
  "c45147dee729311ef5b5c3003946c48f": {
    "city": "Gdańsk",
    "id": "c45147dee729311ef5b5c3003946c48f",
    "info": "czynne: poniedziałek, środa, piątek - 7.15-14.00; wtorek, czwartek - 7.15-17.15; sobota - 7.15-13.00",
    "latitude": 54.3656238,
    "longitude": 18.6286745,
    "name": "RCKiK Gdańsk",
    "phone": "",
    "site": "http://www.krew.gda.pl/",
    "street": "Hoene Wrońskiego 4",
    "voivodeship": "pomorskie",
    "voivodeship_id": "6512bd43d9caa6e02c990b0a82652dca",
    "zip": "80-210"
  },
  "c4ca4238a0b923820dcc509a6f75849b": {
    "city": "Bogatynia",
    "id": "c4ca4238a0b923820dcc509a6f75849b",
    "info": "",
    "latitude": 50.9070895,
    "longitude": 14.9701754,
    "name": "Punkt Poboru Bogatynia",
    "phone": "75 773 20 31",
    "site": "",
    "street": "Szpitalna 16",
    "voivodeship": "dolnośląskie",
    "voivodeship_id": "c4ca4238a0b923820dcc509a6f75849b",
    "zip": "59-700"
  },
  "c51ce410c124a10e0db5e4b97fc2af39": {
    "city": "Bydgoszcz",
    "id": "c51ce410c124a10e0db5e4b97fc2af39",
    "info": "czynne 7.30-13.00",
    "latitude": 53.1430601,
    "longitude": 18.0155448,
    "name": "WCKiK Bydgoszcz",
    "phone": "52 378 72 40",
    "site": "",
    "street": "Powstańców Warszawy 5",
    "voivodeship": "kujawsko-pomorskie",
    "voivodeship_id": "c81e728d9d4c2f636f067f89cc14862c",
    "zip": "85-681"
  },
  "c74d97b01eae257e44aa9d5bade97baf": {
    "city": "Inowrocław",
    "id": "c74d97b01eae257e44aa9d5bade97baf",
    "info": "",
    "latitude": 52.7806057,
    "longitude": 18.2633997,
    "name": "Publiczny Specjalistyczny ZOZ",
    "phone": "",
    "site": "",
    "street": "Poznańska 97",
    "voivodeship": "kujawsko-pomorskie",
    "voivodeship_id": "c81e728d9d4c2f636f067f89cc14862c",
    "zip": "88-100"
  },
  "c7e1249ffc03eb9ded908c236bd1996d": {
    "city": "Warszawa",
    "id": "c7e1249ffc03eb9ded908c236bd1996d",
    "info": "czynne od 7:00 do 13:00, we wtorki: 11:00 - 16:00",
    "latitude": 52.286791,
    "longitude": 20.9513199,
    "name": "Oddział Terenowy Nr 16 RCKiK",
    "phone": "22 569 02 00",
    "site": "",
    "street": "Cegłowska 80",
    "voivodeship": "mazowieckie",
    "voivodeship_id": "8f14e45fceea167a5a36dedd4bea2543",
    "zip": "01-809"
  },
  "c81e728d9d4c2f636f067f89cc14862c": {
    "city": "Głogów",
    "id": "c81e728d9d4c2f636f067f89cc14862c",
    "info": "czynne w poniedziałki 7:00 -16:30 od wt. do pt. 7:00-11:00",
    "latitude": 51.6552309,
    "longitude": 16.0809165,
    "name": "Terenowy Oddział w Głogowie",
    "phone": "",
    "site": "",
    "street": "Kościuszki 15",
    "voivodeship": "dolnośląskie",
    "voivodeship_id": "c4ca4238a0b923820dcc509a6f75849b",
    "zip": "67-200"
  },
  "c8ffe9a587b126f152ed3d89a146b445": {
    "city": "Tczew",
    "id": "c8ffe9a587b126f152ed3d89a146b445",
    "info": "czynne czw. 10:00-12:00 pon.- piąt. 7:15 -9:30",
    "latitude": 54.0871621,
    "longitude": 18.7825012,
    "name": "Punkt Poboru - Tczew",
    "phone": "58 562 33 41",
    "site": "",
    "street": "Piaskowa 3",
    "voivodeship": "pomorskie",
    "voivodeship_id": "6512bd43d9caa6e02c990b0a82652dca",
    "zip": "83-110"
  },
  "c9e1074f5b3f9fc8ea15d152add07294": {
    "city": "Stalowa Wola",
    "id": "c9e1074f5b3f9fc8ea15d152add07294",
    "info": "",
    "latitude": 50.56337,
    "longitude": 22.069218,
    "name": "Oddział Terenowy Stalowa Wola",
    "phone": "15 842 14 55",
    "site": "",
    "street": "Staszica 4",
    "voivodeship": "podkarpackie",
    "voivodeship_id": "45c48cce2e2d7fbdea1afc51c7c6ad26",
    "zip": "37-450"
  },
  "c9f0f895fb98ab9159f51fd0297e236d": {
    "city": "Wrocław",
    "id": "c9f0f895fb98ab9159f51fd0297e236d",
    "info": "czynne od poniedziału do piątku 7:30 - 18:00, sobota 8:00 - 12:00",
    "latitude": 51.1160608,
    "longitude": 17.0662658,
    "name": "RCKIK we Wrocławiu",
    "phone": "71 371 58 10",
    "site": "http://www.rckik.wroclaw.pl/",
    "street": "Czerwonego Krzyża 57",
    "voivodeship": "dolnośląskie",
    "voivodeship_id": "c4ca4238a0b923820dcc509a6f75849b",
    "zip": "50-345"
  },
  "cedebb6e872f539bef8c3f919874e9d7": {
    "city": "Gryfice",
    "id": "cedebb6e872f539bef8c3f919874e9d7",
    "info": "godziny rejestracji - 7:00 - 11:00",
    "latitude": 53.923886,
    "longitude": 15.174598,
    "name": "Oddział terenowy w Gryficach",
    "phone": "91 38 47 009",
    "site": "",
    "street": "Niechorska 27",
    "voivodeship": "zachodniopomorskie",
    "voivodeship_id": "c74d97b01eae257e44aa9d5bade97baf",
    "zip": "72-300"
  },
  "cfecdb276f634854f3ef915e2e980c31": {
    "city": "Szczecinek",
    "id": "cfecdb276f634854f3ef915e2e980c31",
    "info": "godziny rejestracji - 7:00 - 10:00",
    "latitude": 53.712998,
    "longitude": 16.679001,
    "name": "Oddział terenowy w Szczecinku",
    "phone": "94 373 74 78",
    "site": "",
    "street": "Tadeusza Kościuszki 38",
    "voivodeship": "zachodniopomorskie",
    "voivodeship_id": "c74d97b01eae257e44aa9d5bade97baf",
    "zip": "78-400"
  },
  "d09bf41544a3365a46c9077ebb5e35c3": {
    "city": "Mława",
    "id": "d09bf41544a3365a46c9077ebb5e35c3",
    "info": "czynne od 7:00 do 13:30",
    "latitude": 53.123407,
    "longitude": 20.372614,
    "name": "Oddział Terenowy Nr 57 RCKiK",
    "phone": "23 654 32 35 w.269",
    "site": "",
    "street": "A. Dobrskiej 1",
    "voivodeship": "mazowieckie",
    "voivodeship_id": "8f14e45fceea167a5a36dedd4bea2543",
    "zip": "06-500"
  },
  "d1f491a404d6854880943e5c3cd9ca25": {
    "city": "Częstochowa",
    "id": "d1f491a404d6854880943e5c3cd9ca25",
    "info": "rejestracja dawców 7.30 - 14.00",
    "latitude": 50.8296841,
    "longitude": 19.0894462,
    "name": "Oddział Terenowy Częstochowa",
    "phone": "34 360 57 92, 34 360",
    "site": "",
    "street": "Bialska 104/118",
    "voivodeship": "śląskie",
    "voivodeship_id": "c20ad4d76fe97759aa27a0c99bff6710",
    "zip": "42-202"
  },
  "d2ddea18f00665ce8623e36bd4e3c7c5": {
    "city": "Gostynin",
    "id": "d2ddea18f00665ce8623e36bd4e3c7c5",
    "info": "czynne od 7:00 do 13:30",
    "latitude": 52.4293273,
    "longitude": 19.4619176,
    "name": "Oddział Terenowy Nr 38 RCKiK",
    "phone": "24 235 20 91 w.480",
    "site": "",
    "street": "3-Go Maja 47",
    "voivodeship": "mazowieckie",
    "voivodeship_id": "8f14e45fceea167a5a36dedd4bea2543",
    "zip": "09-500"
  },
  "d3d9446802a44259755d38e6d163e820": {
    "city": "Wrocław",
    "id": "d3d9446802a44259755d38e6d163e820",
    "info": "czynne 7.30-13.00",
    "latitude": 51.0762334,
    "longitude": 17.0206541,
    "name": "WCKiK Wrocław",
    "phone": "71 7 660 427",
    "site": "",
    "street": "Rudolfa Weigla 5",
    "voivodeship": "dolnośląskie",
    "voivodeship_id": "c4ca4238a0b923820dcc509a6f75849b",
    "zip": "53-114"
  },
  "d645920e395fedad7bbbed0eca3fe2e0": {
    "city": "Łowicz",
    "id": "d645920e395fedad7bbbed0eca3fe2e0",
    "info": "czynne w każdy poniedzialek w godzinach 9-11",
    "latitude": 52.0956334,
    "longitude": 19.938465,
    "name": "Punkt Pobrań w Łowiczu",
    "phone": "",
    "site": "",
    "street": "Powstańców 1863r. 17",
    "voivodeship": "łódzkie",
    "voivodeship_id": "e4da3b7fbbce2345d7772b0674a318d5",
    "zip": "99-400"
  },
  "d67d8ab4f4c10bf22aa353e27879133c": {
    "city": "Łęczyca",
    "id": "d67d8ab4f4c10bf22aa353e27879133c",
    "info": "czynne codziennie od 8:00 do 10:00, czwartek - nieczynne!",
    "latitude": 52.0601793,
    "longitude": 19.1878785,
    "name": "Punkt Pobrań - Nr 62, Samodzielny Publiczny ZOZ",
    "phone": "24 721 51 69",
    "site": "",
    "street": "Zachodnia 6",
    "voivodeship": "łódzkie",
    "voivodeship_id": "e4da3b7fbbce2345d7772b0674a318d5",
    "zip": "99-100"
  },
  "d82c8d1619ad8176d665453cfb2e55f0": {
    "city": "Brzesko",
    "id": "d82c8d1619ad8176d665453cfb2e55f0",
    "info": "",
    "latitude": 49.9701284,
    "longitude": 20.5984269,
    "name": "Oddział Terenowy RCKiK w Krakowie",
    "phone": "",
    "site": "",
    "street": "Kościuszki 68",
    "voivodeship": "małopolskie",
    "voivodeship_id": "1679091c5a880faf6fb5e6087eb1b2dc",
    "zip": "32-800"
  },
  "d9d4f495e875a2e075a1a4a6e1b9770f": {
    "city": "Radomsko",
    "id": "d9d4f495e875a2e075a1a4a6e1b9770f",
    "info": "czynne od 8:00 do 10:30, w środę i czwartek do 10:00",
    "latitude": 51.0668544,
    "longitude": 19.4449387,
    "name": "Punkt Pobrań - Nr 16",
    "phone": "44 683 50 37",
    "site": "",
    "street": "Jagiellońska 53",
    "voivodeship": "łódzkie",
    "voivodeship_id": "e4da3b7fbbce2345d7772b0674a318d5",
    "zip": "97-500"
  },
  "da4fb5c6e93e74d3df8527599fa62642": {
    "city": "Kwidzyn   ",
    "id": "da4fb5c6e93e74d3df8527599fa62642",
    "info": "",
    "latitude": 53.7269686,
    "longitude": 18.9204908,
    "name": "Oddział Terenowy Kwidzyn",
    "phone": "55 279 41 35",
    "site": "",
    "street": "Hallera 31",
    "voivodeship": "pomorskie",
    "voivodeship_id": "6512bd43d9caa6e02c990b0a82652dca",
    "zip": "82-500"
  },
  "e00da03b685a0dd18fb6a08af0923de0": {
    "city": "Busko-Zdrój",
    "id": "e00da03b685a0dd18fb6a08af0923de0",
    "info": "",
    "latitude": 50.4677502,
    "longitude": 20.7040307,
    "name": "Zespół Opieki ZdrowOddział Terenowynej",
    "phone": "",
    "site": "",
    "street": "Bohaterów Warszawy 67",
    "voivodeship": "świętokrzyskie",
    "voivodeship_id": "c51ce410c124a10e0db5e4b97fc2af39",
    "zip": "28-110"
  },
  "e2c420d928d4bf8ce0ff2ec19b371514": {
    "city": "Ciechanów",
    "id": "e2c420d928d4bf8ce0ff2ec19b371514",
    "info": "czynne od 7:00 do 13:30",
    "latitude": 52.884722,
    "longitude": 20.6327302,
    "name": "Oddział Terenowy Nr 56 RCKiK",
    "phone": "23 673 03 26",
    "site": "",
    "street": "Powstańców Wielkopolskich 2",
    "voivodeship": "mazowieckie",
    "voivodeship_id": "8f14e45fceea167a5a36dedd4bea2543",
    "zip": "06-400"
  },
  "e2ef524fbf3d9fe611d5a8e90fefdc9c": {
    "city": "Jasło",
    "id": "e2ef524fbf3d9fe611d5a8e90fefdc9c",
    "info": "",
    "latitude": 49.7518567,
    "longitude": 21.4802202,
    "name": "Oddział Terenowy Jasło",
    "phone": "13 445 84 68",
    "site": "",
    "street": "Lwowska 22",
    "voivodeship": "podkarpackie",
    "voivodeship_id": "45c48cce2e2d7fbdea1afc51c7c6ad26",
    "zip": "38-200"
  },
  "e369853df766fa44e1ed0ff613f563bd": {
    "city": "Zielona Góra",
    "id": "e369853df766fa44e1ed0ff613f563bd",
    "info": "czynne od poniedziałku do piątku w godzinach: od 7.00 do 14.35",
    "latitude": 51.9407661,
    "longitude": 15.5188063,
    "name": "RCKiK w Zielonej Górze",
    "phone": "68 329 83 89",
    "site": "http://www.rckik.zgora.pl/",
    "street": "Zyty 21",
    "voivodeship": "lubuskie",
    "voivodeship_id": "a87ff679a2f3e71d9181a67b7542122c",
    "zip": "65-046"
  },
  "e4da3b7fbbce2345d7772b0674a318d5": {
    "city": "Legnica",
    "id": "e4da3b7fbbce2345d7772b0674a318d5",
    "info": "czynne w pon, wt, czw, pt 7:00 -11:30 w środy 7:00-17:00",
    "latitude": 51.2085246,
    "longitude": 16.2157689,
    "name": "Oddział Terenowy Legnica",
    "phone": "76 721 16 88",
    "site": "",
    "street": "Iwaszkiewicza 5",
    "voivodeship": "dolnośląskie",
    "voivodeship_id": "c4ca4238a0b923820dcc509a6f75849b",
    "zip": "59-220"
  },
  "ea5d2f1c4608232e07d3aa3d998e5135": {
    "city": "Olkusz",
    "id": "ea5d2f1c4608232e07d3aa3d998e5135",
    "info": "",
    "latitude": 50.269248,
    "longitude": 19.569237,
    "name": "Oddział Terenowy RCKiK w Krakowie",
    "phone": "",
    "site": "",
    "street": "Al. 1000-Lecia 13",
    "voivodeship": "małopolskie",
    "voivodeship_id": "1679091c5a880faf6fb5e6087eb1b2dc",
    "zip": "32-300"
  },
  "eb160de1de89d9058fcb0b968dbbbd68": {
    "city": "Gdynia Redłowo",
    "id": "eb160de1de89d9058fcb0b968dbbbd68",
    "info": "",
    "latitude": 54.4881366,
    "longitude": 18.5483608,
    "name": "Oddział Terenowy Gdynia Redłowo",
    "phone": "58 622 02 69",
    "site": "",
    "street": "Powstania Styczniowego 9b",
    "voivodeship": "pomorskie",
    "voivodeship_id": "6512bd43d9caa6e02c990b0a82652dca",
    "zip": "81-519"
  },
  "ec5decca5ed3d6b8079e2e7e7bacc9f2": {
    "city": "Bytom",
    "id": "ec5decca5ed3d6b8079e2e7e7bacc9f2",
    "info": "rejestracja dawców 7.00 - 10.00",
    "latitude": 50.3885571,
    "longitude": 18.8804446,
    "name": "Oddział Terenowy Bytom",
    "phone": "281 95 08",
    "site": "",
    "street": "Żeromskiego 7",
    "voivodeship": "śląskie",
    "voivodeship_id": "c20ad4d76fe97759aa27a0c99bff6710",
    "zip": "41-902"
  },
  "ec8956637a99787bd197eacd77acce5e": {
    "city": "Rzeszów",
    "id": "ec8956637a99787bd197eacd77acce5e",
    "info": "poniedziałek - piątek od 7.00 do 13.30, środa od 7.00 do 17.00",
    "latitude": 50.0334122,
    "longitude": 22.0150459,
    "name": "RCKiK w Rzeszowie",
    "phone": "17 86 72 030",
    "site": "https://www.rckk.rzeszow.pl/",
    "street": "Wierzbowa 14",
    "voivodeship": "podkarpackie",
    "voivodeship_id": "45c48cce2e2d7fbdea1afc51c7c6ad26",
    "zip": "35-310"
  },
  "eccbc87e4b5ce2fe28308fd9f2a7baf3": {
    "city": "Jelenia Góra",
    "id": "eccbc87e4b5ce2fe28308fd9f2a7baf3",
    "info": "czynne 7.30 - 12.00",
    "latitude": 50.9096638,
    "longitude": 15.7530011,
    "name": "Jelenia Góra",
    "phone": "75 76 46 426",
    "site": "",
    "street": "Ogińskiego 6",
    "voivodeship": "dolnośląskie",
    "voivodeship_id": "c4ca4238a0b923820dcc509a6f75849b",
    "zip": "58-500"
  },
  "ed3d2c21991e3bef5e069713af9fa6ca": {
    "city": "Krosno",
    "id": "ed3d2c21991e3bef5e069713af9fa6ca",
    "info": "",
    "latitude": 49.701787,
    "longitude": 21.782733,
    "name": "Oddział Terenowy Krosno",
    "phone": "13 420 10 50",
    "site": "",
    "street": "Korczyńska 57",
    "voivodeship": "podkarpackie",
    "voivodeship_id": "45c48cce2e2d7fbdea1afc51c7c6ad26",
    "zip": "38-400"
  },
  "eecca5b6365d9607ee5a9d336962c534": {
    "city": "Kołobrzeg",
    "id": "eecca5b6365d9607ee5a9d336962c534",
    "info": "godziny rejestracji - 8:00 - 11:00",
    "latitude": 54.1747977,
    "longitude": 15.5679884,
    "name": "Oddział terenowy w Kołobrzegu",
    "phone": "94 35 46 627",
    "site": "",
    "street": "Łopuskiego 31",
    "voivodeship": "zachodniopomorskie",
    "voivodeship_id": "c74d97b01eae257e44aa9d5bade97baf",
    "zip": "78-100"
  },
  "f033ab37c30201f73f142449d037028d": {
    "city": "Płońsk",
    "id": "f033ab37c30201f73f142449d037028d",
    "info": "czynne od 7:00 do 13:30",
    "latitude": 49.4388256,
    "longitude": 19.8545662,
    "name": "Oddział Terenowy Nr 58 RCKiK",
    "phone": "23 662 41 14",
    "site": "",
    "street": "Sienkiewicza 7",
    "voivodeship": "mazowieckie",
    "voivodeship_id": "8f14e45fceea167a5a36dedd4bea2543",
    "zip": "09-100"
  },
  "f0935e4cd5920aa6c7c996a5ee53a70f": {
    "city": "Białystok",
    "id": "f0935e4cd5920aa6c7c996a5ee53a70f",
    "info": "czynne: 7.00 – 14.00, w środy do 17:30",
    "latitude": 53.1256922,
    "longitude": 23.1625788,
    "name": "RCKiK w Białymstoku",
    "phone": "85 744 70 62",
    "site": "http://www.rckik.bialystok.pl/",
    "street": "Marii Skłodowskiej-Curie 23",
    "voivodeship": "podlaskie",
    "voivodeship_id": "d3d9446802a44259755d38e6d163e820",
    "zip": "15-950"
  },
  "f2217062e9a397a1dca429e7d70bc6ca": {
    "city": "Elbląg",
    "id": "f2217062e9a397a1dca429e7d70bc6ca",
    "info": "",
    "latitude": 54.1581993,
    "longitude": 19.433047,
    "name": "Oddział Terenowy w Elblągu",
    "phone": "",
    "site": "",
    "street": "Bema 80",
    "voivodeship": "warmińsko-mazurskie",
    "voivodeship_id": "aab3238922bcc25a6f606eb525ffdc56",
    "zip": "82-300"
  },
  "f457c545a9ded88f18ecee47145a72c0": {
    "city": "Tomaszów Mazowiecki",
    "id": "f457c545a9ded88f18ecee47145a72c0",
    "info": "czynne od 8:30 do 11:00, w czwartki do 11:30",
    "latitude": 51.5230054,
    "longitude": 20.0050112,
    "name": "Punkt Pobrań - Nr 17",
    "phone": "44 724 08 07",
    "site": "",
    "street": "Jana Pawła II 35",
    "voivodeship": "łódzkie",
    "voivodeship_id": "e4da3b7fbbce2345d7772b0674a318d5",
    "zip": "97-200"
  },
  "f4b9ec30ad9f68f89b29639786cb62ef": {
    "city": "Nysa",
    "id": "f4b9ec30ad9f68f89b29639786cb62ef",
    "info": "czynne od poniedziałku do piątku od godziny 7.00 do 13.00, rejestracja do 12.30",
    "latitude": 50.4591359,
    "longitude": 17.3508138,
    "name": "Oddział Terenowy Nysa",
    "phone": "77 433 24 43",
    "site": "",
    "street": "Piłsudskiego 47",
    "voivodeship": "opolskie",
    "voivodeship_id": "c9f0f895fb98ab9159f51fd0297e236d",
    "zip": "48-300"
  },
  "f7177163c833dff4b38fc8d2872f1ec6": {
    "city": "Pabianice",
    "id": "f7177163c833dff4b38fc8d2872f1ec6",
    "info": "czynne poniedziałek 8.00-11.30, wtorek 8.00-11.30, środa 8.00-11.30, czwartek 8.00-9.30, piątek 8.00-11.30",
    "latitude": 51.6542355,
    "longitude": 19.332836,
    "name": "Punkt Pobrań - Nr 11",
    "phone": "42 214 94 01",
    "site": "",
    "street": "Jana Pawła II 68",
    "voivodeship": "łódzkie",
    "voivodeship_id": "e4da3b7fbbce2345d7772b0674a318d5",
    "zip": "95-200"
  },
  "f7e6c85504ce6e82442c770f7c8606f0": {
    "city": "Śrem",
    "id": "f7e6c85504ce6e82442c770f7c8606f0",
    "info": "czynne poniedziałek, wtorek, czwartek, piątek, rejestracja: 7.30-11.00",
    "latitude": 52.089291,
    "longitude": 17.007114,
    "name": "Oddział terenowy w Śremie",
    "phone": "61 281 54 33",
    "site": "",
    "street": "Chełmońskiego 1",
    "voivodeship": "wielkopolskie",
    "voivodeship_id": "9bf31c7ff062936a96d3c8bd1f8f2ff3",
    "zip": "63-100"
  },
  "f899139df5e1059396431415e770c6dd": {
    "city": "Mielec",
    "id": "f899139df5e1059396431415e770c6dd",
    "info": "",
    "latitude": 50.2882063,
    "longitude": 21.4336499,
    "name": "Oddział Terenowy Mielec",
    "phone": "17 583 69 52",
    "site": "",
    "street": "Żeromskiego 17",
    "voivodeship": "podkarpackie",
    "voivodeship_id": "45c48cce2e2d7fbdea1afc51c7c6ad26",
    "zip": "39-300"
  },
  "fa7cdfad1a5aaf8370ebeda47a1ff1c3": {
    "city": "Kościan",
    "id": "fa7cdfad1a5aaf8370ebeda47a1ff1c3",
    "info": "czynne poniedziałek, wtorek, piątek, rejestracja: 8.00-9.00",
    "latitude": 52.084784,
    "longitude": 16.647422,
    "name": "Oddział terenowy w Kościanie",
    "phone": "65 512 08 55 w.267",
    "site": "",
    "street": "Szpitalna 7",
    "voivodeship": "wielkopolskie",
    "voivodeship_id": "9bf31c7ff062936a96d3c8bd1f8f2ff3",
    "zip": "64-000"
  },
  "fbd7939d674997cdb4692d34de8633c4": {
    "city": "Nowy Dwór Mazowiecki",
    "id": "fbd7939d674997cdb4692d34de8633c4",
    "info": "czynne od 7:00 do 13:30",
    "latitude": 52.4203555,
    "longitude": 20.7223113,
    "name": "Oddział Terenowy Nr 30 RCKiK",
    "phone": "22 775 30 81 w.225",
    "site": "",
    "street": "Miodowa 2",
    "voivodeship": "mazowieckie",
    "voivodeship_id": "8f14e45fceea167a5a36dedd4bea2543",
    "zip": "05-100"
  },
  "fc221309746013ac554571fbd180e1c8": {
    "city": "Białogard",
    "id": "fc221309746013ac554571fbd180e1c8",
    "info": "godziny rejestracji - 8:15 - 10:00",
    "latitude": 54.006551,
    "longitude": 16.006598,
    "name": "Oddział terenowy w Białogardzie",
    "phone": "94 312 82 57",
    "site": "",
    "street": "Nowowiejskiego 7",
    "voivodeship": "zachodniopomorskie",
    "voivodeship_id": "c74d97b01eae257e44aa9d5bade97baf",
    "zip": "78-200"
  },
  "fc490ca45c00b1249bbe3554a4fdf6fb": {
    "city": "Oświęcim",
    "id": "fc490ca45c00b1249bbe3554a4fdf6fb",
    "info": "",
    "latitude": 50.040604,
    "longitude": 19.2373441,
    "name": "Oddział Terenowy RCKiK w Krakowie",
    "phone": "",
    "site": "",
    "street": "Wysokie Brzegi 4",
    "voivodeship": "małopolskie",
    "voivodeship_id": "1679091c5a880faf6fb5e6087eb1b2dc",
    "zip": "32-600"
  },
  "fe9fc289c3ff0af142b6d3bead98a923": {
    "city": "Siedlce",
    "id": "fe9fc289c3ff0af142b6d3bead98a923",
    "info": "czynne od 7:00 do 13:30",
    "latitude": 52.1627095,
    "longitude": 22.2770988,
    "name": "Oddział Terenowy Nr 46 RCKiK",
    "phone": "25 632 74 61",
    "site": "",
    "street": "Formińskiego 12",
    "voivodeship": "mazowieckie",
    "voivodeship_id": "8f14e45fceea167a5a36dedd4bea2543",
    "zip": "08-110"
  },
  "mx77rpwtrpi2t9zfnkcse8tnrfnfboma": {
    "city": "Warszawa",
    "id": "mx77rpwtrpi2t9zfnkcse8tnrfnfboma",
    "info": "Dawcy krwi przyjmowani są: - poniedziałek – piątek 7:30 – 13:00",
    "latitude": 52.1991156,
    "longitude": 20.9978034,
    "name": "Centrum Krwiodawstwa i Krwiolecznictwa Ministerstwa Spraw Wewnętrznych i Administracji",
    "phone": "22 508 13 12",
    "site": "http://ckikmsw.pl",
    "street": "Wołoska 137",
    "voivodeship": "mazowieckie",
    "voivodeship_id": "8f14e45fceea167a5a36dedd4bea2543",
    "zip": "02-507"
  }
}